time(millisecond),datetime(utc),latitude,longitude,height_above_takeoff(feet),height_above_ground_at_drone_location(feet),ground_elevation_at_drone_location(feet),altitude_above_seaLevel(feet),height_sonar(feet),speed(mph),distance(feet),mileage(feet),satellites,gpslevel,voltage(v),max_altitude(feet),max_ascent(feet),max_speed(mph),max_distance(feet), xSpeed(mph), ySpeed(mph), zSpeed(mph), compass_heading(degrees), pitch(degrees), roll(degrees),isPhoto,isVideo,rc_elevator,rc_aileron,rc_throttle,rc_rudder,rc_elevator(percent),rc_aileron(percent),rc_throttle(percent),rc_rudder(percent),gimbal_heading(degrees),gimbal_pitch(degrees),gimbal_roll(degrees),battery_percent,voltageCell1,voltageCell2,voltageCell3,voltageCell4,voltageCell5,voltageCell6,current(A),battery_temperature(f),altitude(feet),ascent(feet),flycStateRaw,flycState,message
20100,2026-03-02 07:54:08,22.3091417352913,39.0983230280172,0,Available with any HD 360 subscription,Available with any HD 360 subscription,3.55151094042,0,0,0,0,14,5,0,3.55151094042,0,0,0,0,0,0,188.4, 4, -1.6,0,0,1024,1024,1024,1024,0,0,0,0,198.1,0,0,88,4.19,4.191,4.193,0,0,0,0,80.96,3.55151094042,0,41,Motors_Started,"En vol"
20200,2026-03-02 07:54:08,22.3091417351743,39.0983230471307,0,,,3.55151094042,0,0,0.0064517062432,0.0064517062432,14,5,0,3.55151094042,0,0,0.0064517062432,0,0,0,188.4, 4, -1.6,0,0,1024,1024,1024,1024,0,0,0,0,198.1,0,0,88,4.19,4.191,4.193,0,0,0,0,80.96,3.55151094042,0,41,Motors_Started,
20300,2026-03-02 07:54:08,22.3091417389815,39.0983230464217,0,,,3.55151094042,0,0,0.006356463458,0.007861220724,14,5,0,3.55151094042,0,0,0.0064517062432,0,0,0,188.4, 4, -1.6,0,0,1024,1024,1024,1024,0,0,0,0,198.1,0,0,88,4.19,4.191,4.193,0,0,0,0,80.96,3.55151094042,0,41,Motors_Started,
20400,2026-03-02 07:54:09,22.3091417369712,39.0983228968116,0,,,3.55151094042,0,0,0.04429134,0.058365815516,14,5,0,3.55151094042,0,0,0.04429134,0,0,0,188.4, 4, -1.6,0,0,1024,1024,1024,1024,0,0,0,0,198.1,0,0,88,4.19,4.191,4.193,0,0,0,0,80.96,3.55151094042,0,41,Motors_Started,
20500,2026-03-02 07:54:09,22.3091417411206,39.0983228844511,0,,,3.55151094042,0,0,0.048505907064,0.062804135868,14,5,0,3.55151094042,0,0,0.048505907064,0,0,0,188.4, 4, -1.6,0,0,1024,1024,1024,1024,0,0,0,0,198.1,0,0,88,4.19,4.191,4.193,0,0,0,0,80.96,3.55151094042,0,41,Motors_Started,
20600,2026-03-02 07:54:09,22.3091417377042,39.0983229173636,0,,,3.55151094042,0,0,0.0373605655,0.073983270084,14,5,0,3.55151094042,0,0,0.048505907064,0,0,0,188.4, 4, -1.6,0,0,1024,1024,1024,1024,0,0,0,0,198.1,0,0,88,4.19,4.191,4.193,0,0,0,0,80.96,3.55151094042,0,41,Motors_Started,
20700,2026-03-02 07:54:09,22.3091417415521,39.0983229097211,0,,,3.55151094042,0,0,0.03999508002,0.076920278052,14,5,0,3.55151094042,0,0,0.048505907064,0,0,0,188.4, 4, -1.6,0,0,1024,1024,1024,1024,0,0,0,0,198.1,0,0,88,4.19,4.191,4.193,0,0,0,0,80.96,3.55151094042,0,41,Motors_Started,
20800,2026-03-02 07:54:09,22.3091415725571,39.0983229338937,0,,,3.55151094042,0,0,0.067339241,0.139115490016,14,5,0,3.55151094042,0,0,0.067339241,0,0,0,188.4, 4, -1.6,0,0,1024,1024,1024,1024,0,0,0,0,198.1,0,0,88,4.19,4.191,4.193,0,0,0,0,80.96,3.55151094042,0,41,Motors_Started,"Setting new Return-To-Home altitude to 20m (66 ft). Data Recorder File Index is 24. Setting new Maximum Flight Altitude to 20m (66 ft)"
20900,2026-03-02 07:54:09,22.3091415615735,39.098322929942,0,,,3.55151094042,0,0,0.071505579716,0.143338915348,14,5,0,3.55151094042,0,0,0.071505579716,0,0,0,188.4, 4, -1.6,0,0,1024,1024,1024,1024,0,0,0,0,198.1,0,0,88,4.19,4.191,4.193,0,0,0,0,80.96,3.55151094042,0,41,Motors_Started,
21000,2026-03-02 07:54:09,22.3091415799293,39.0983229472995,0,,,3.55151094042,0,0,0.062891734296,0.152237209596,14,5,0,3.55151094042,0,0,0.071505579716,0,0,0,188.4, 4, -1.6,0,0,1024,1024,1024,1024,0,0,0,0,198.1,0,0,88,4.19,4.191,4.193,0,0,0,0,80.96,3.55151094042,0,41,Motors_Started,
21100,2026-03-02 07:54:09,22.3091415707455,39.0983229463422,0,,,3.55151094042,0,0,0.066061681904,0.155603351436,14,5,12.572,3.55151094042,0,0,0.071505579716,0,0,0,188.4, 4, -1.6,0,0,1024,1024,1024,1024,0,0,0,0,198.1,0,0,88,4.14,4.14,4.141,0,0,0,1.123,80.96,3.55151094042,0,41,Motors_Started,
21200,2026-03-02 07:54:09,22.3091417504998,39.0983229575137,0,,,3.55151094042,0,0,0.0244361228292,0.221294954588,14,5,12.572,3.55151094042,0,0,0.071505579716,0,0,0,188.4, 3.9, -1.6,0,0,1024,1024,1024,1024,0,0,0,0,198.1,0,0,88,4.14,4.14,4.141,0,0,0,1.123,80.96,3.55151094042,0,41,Motors_Started,
21300,2026-03-02 07:54:10,22.3091417560563,39.0983229590697,0,,,3.55151094042,0,0,0.0244746726992,0.22338911476,14,5,12.572,3.55151094042,0,0,0.071505579716,0,0,0,188.5, 3.9, -1.6,0,0,1024,1024,1024,1024,0,0,0,0,198.1,0,0,88,4.14,4.14,4.141,0,0,0,1.123,80.96,3.55151094042,0,41,Motors_Started,
21400,2026-03-02 07:54:10,22.3091415816454,39.0983229657207,0,,,3.55151094042,0,0,0.059871721076,0.287062345144,14,5,12.572,3.55151094042,0,0,0.071505579716,0,0,0,188.5, 3.9, -1.6,0,0,1024,1024,1024,1024,0,0,0,0,198.1,0,0,88,4.14,4.14,4.141,0,0,0,1.123,80.96,3.55151094042,0,41,Motors_Started,
21500,2026-03-02 07:54:10,22.3091415725807,39.0983229700521,0,,,3.55151094042,0,0,0.062505907512,0.290678486992,14,5,12.572,3.55151094042,0,0,0.071505579716,0,0,0,188.5, 3.9, -1.6,0,0,1024,1024,1024,1024,0,0,0,0,198.1,0,0,88,4.14,4.14,4.141,0,0,0,1.123,80.96,3.55151094042,0,41,Motors_Started,
21600,2026-03-02 07:54:10,22.3091415864276,39.0983231373638,0,,,3.55151094042,0,0,0.065666996852,0.34737862004,14,5,12.572,3.55151094042,0,0,0.071505579716,0,0,0,188.5, 3.9, -1.6,0,0,1024,1024,1024,1024,0,0,0,0,198.1,0,0,88,4.14,4.14,4.141,0,0,0,1.123,80.96,3.55151094042,0,11,AutoTakeoff,
21700,2026-03-02 07:54:10,22.3091415791543,39.0983231568737,0,,,3.55151094042,0,0,0.071672246388,0.3544783578,14,5,12.572,3.55151094042,0,0,0.071672246388,0,0,0,188.5, 3.9, -1.6,0,0,1024,1024,1024,1024,0,0,0,0,198.1,0,0,88,4.14,4.14,4.141,0,0,0,1.123,80.96,3.55151094042,0,11,AutoTakeoff,
21800,2026-03-02 07:54:10,22.3091415957365,39.0983231331959,0,,,3.55151094042,0,0,0.062071524296,0.364501324,14,5,12.572,3.55151094042,0,0,0.071672246388,0,0,0,188.5, 3.9, -1.6,0,0,1024,1024,1024,1024,0,0,0,0,198.1,0,0,88,4.14,4.14,4.141,0,0,0,1.123,80.96,3.55151094042,0,11,AutoTakeoff,
21900,2026-03-02 07:54:10,22.3091415903189,39.0983231514979,0,,,3.55151094042,0,0,0.067341537588,0.37098754468,14,5,12.572,3.55151094042,0,0,0.071672246388,0,0,0,188.6, 3.7, -1.7,0,0,1024,1024,1024,1024,0,0,0,0,198.1,0,0,88,4.14,4.14,4.141,0,0,0,1.123,80.96,3.55151094042,0,11,AutoTakeoff,
22000,2026-03-02 07:54:10,22.3091416016431,39.0983231278221,0,,,3.55151094042,0,0,0.059267062264,0.37998360796,14,5,12.572,3.55151094042,0,0,0.071672246388,0,0,0,189.3, 1.2, -1.7,0,0,1024,1024,1024,1024,0,0,0,0,198.1,0,0,88,4.14,4.14,4.141,0,0,0,1.123,80.96,3.55151094042,0,11,AutoTakeoff,
22100,2026-03-02 07:54:10,22.3091415815672,39.098323160699,0,,,3.55151094042,0,0,0.07177329626,0.39328085248,14,5,12.429,3.55151094042,0,0,0.07177329626,0,0,-0.223694,190.3, -3.4, -2.2,0,0,1024,1024,1024,1024,0,0,0,0,198.1,0,0,88,4.157,4.154,4.152,0,0,0,2.768,80.96,3.55151094042,0,11,AutoTakeoff,
22200,2026-03-02 07:54:10,22.3091416978966,39.0983231820423,0,,,3.55151094042,0,0,0.05375000172,0.43633203496,14,5,12.429,3.55151094042,0,0,0.07177329626,0,0,-0.447388,190.4, -3, -1.4,0,0,1024,1024,1024,1024,0,0,0,0,198.1,0,0,88,4.157,4.154,4.152,0,0,0,2.768,80.96,3.55151094042,0,11,AutoTakeoff,
22300,2026-03-02 07:54:10,22.3091416047087,39.0983232631505,0,,,3.55151094042,0,0.223694,0.092568572516,0.47998361116,14,5,12.429,3.55151094042,0,0.223694,0.092568572516,-0.223694,0,-0.894776,190.4, -1.4, 0.2,0,0,1024,1024,1024,1024,0,0,0,0,198.1,0,0,88,4.157,4.154,4.152,0,0,0,2.768,80.96,3.55151094042,0,11,AutoTakeoff,
22400,2026-03-02 07:54:11,22.3091413011543,39.0983233026042,0.328084,,,3.87959494042,0,0.223694,0.183519034744,0.59153217116,14,5,12.429,3.87959494042,0.328084,0.223694,0.183519034744,-0.223694,0,-0.894776,190.4, 0.1, 0.8,0,0,1024,1024,1024,1024,0,0,0,0,198.1,0,0,88,4.157,4.154,4.152,0,0,0,2.768,80.96,3.87959494042,0.328084,11,AutoTakeoff,
22500,2026-03-02 07:54:11,22.3091411768619,39.0983233581044,0.328084,,,3.87959494042,0,0.223694,0.232217527116,0.64059713336,14,5,12.429,3.87959494042,0.328084,0.223694,0.232217527116,-0.223694,0,-0.894776,190.3, 0.9, 0.6,0,0,1024,1024,1024,1024,0,0,0,0,198.1,0,0,88,4.157,4.154,4.152,0,0,0,2.768,80.96,3.87959494042,0.328084,11,AutoTakeoff,
22600,2026-03-02 07:54:11,22.3091411754427,39.0983234865678,0.656168,,,4.20767894042,0.656168,0.223694,0.256278879592,0.68396327648,15,5,12.429,4.20767894042,0.656168,0.223694,0.256278879592,-0.223694,0,-0.894776,190.3, 1.1, 0.3,0,0,1024,1024,1024,1024,0,0,0,0,198.2,0,0,88,4.157,4.154,4.152,0,0,0,2.768,80.96,4.20767894042,0.656168,11,AutoTakeoff,
22700,2026-03-02 07:54:11,22.3091410856246,39.0983235256434,0.656168,,,4.20767894042,0.656168,0,0.290511492236,0.71928808076,15,5,12.429,4.20767894042,0.656168,0.223694,0.290511492236,0,0,-0.894776,190.4, 1.4, 0.4,0,0,1024,1024,1024,1024,0,0,0,0,198.2,0,0,88,4.157,4.154,4.152,0,0,0,2.768,80.96,4.20767894042,0.656168,11,AutoTakeoff,
22800,2026-03-02 07:54:11,22.3091413214848,39.0983234595473,0.656168,,,4.20767894042,0.984252,0,0.20978675212,0.8081857214,15,5,12.429,4.20767894042,0.656168,0.223694,0.290511492236,0,0,-0.894776,190.3, 1.8, 0.4,0,0,1024,1024,1024,1024,0,0,0,0,198.3,0,0,88,4.157,4.154,4.152,0,0,0,2.768,80.96,4.20767894042,0.656168,11,AutoTakeoff,"Mise à jour du point de départ. L'altitude RTH a été ajustée à 20 m (Code: 120852)"
22900,2026-03-02 07:54:11,22.3091413039292,39.0983234720197,0.984252,,,4.53576294042,0.984252,0,0.217324153936,0.81584976364,15,5,12.429,4.53576294042,0.984252,0.223694,0.290511492236,0,0,-0.894776,190.4, 1.5, 0.3,0,0,1024,1024,1024,1024,0,0,0,0,198.3,0,0,88,4.157,4.154,4.152,0,0,0,2.768,80.96,4.53576294042,0.984252,11,AutoTakeoff,
23000,2026-03-02 07:54:11,22.3091416087912,39.0983234541409,0.984252,,,4.53576294042,1.312336,0,0.151057419532,0.92724412416,15,5,12.429,4.53576294042,0.984252,0.223694,0.290511492236,0,0,-0.894776,190.3, 1.1, -0.1,0,0,1024,1024,1024,1024,0,0,0,0,198.4,0,0,88,4.157,4.154,4.152,0,0,0,2.768,80.96,4.53576294042,0.984252,11,AutoTakeoff,
23100,2026-03-02 07:54:11,22.3091416587198,39.0983234528832,1.312336,,,4.86384694042,1.312336,0,0.146104991552,0.94546262868,15,5,12.506,4.86384694042,1.312336,0.223694,0.290511492236,0,0,-0.894776,190.4, 0.8, -0.2,0,0,1024,1024,1024,1024,0,0,0,0,198.4,0,0,88,4.084,4.082,4.082,0,0,0,3.096,80.96,4.86384694042,1.312336,11,AutoTakeoff,
23200,2026-03-02 07:54:11,22.309141848751,39.0983230356467,1.312336,,,4.86384694042,1.64042,0,0.041475723112,1.10244098016,15,5,12.506,4.86384694042,1.312336,0.223694,0.290511492236,0,0,-0.894776,190.3, 0.6, -0.2,0,0,1024,1024,1024,1024,0,0,0,0,198.5,0,0,88,4.084,4.082,4.082,0,0,0,3.096,80.96,4.86384694042,1.312336,11,AutoTakeoff,
23300,2026-03-02 07:54:11,22.309141929369,39.0983230058354,1.64042,,,5.19193094042,1.64042,0,0.071203742436,1.13352693916,15,5,12.506,5.19193094042,1.64042,0.223694,0.290511492236,0,0,-0.894776,190.4, 0.4, 0,0,0,1024,1024,1024,1024,0,0,0,0,198.5,0,0,88,4.084,4.082,4.082,0,0,0,3.096,80.96,5.19193094042,1.64042,11,AutoTakeoff,
23400,2026-03-02 07:54:12,22.3091417928295,39.0983230464042,1.64042,,,5.19193094042,1.968504,0,0.0218910111992,1.18519032664,15,5,12.506,5.19193094042,1.64042,0.223694,0.290511492236,0,0,-1.11847,190.4, 0.3, 0.1,0,0,1024,1024,1024,1024,0,0,0,0,198.5,0,0,88,4.084,4.082,4.082,0,0,0,3.096,80.96,5.19193094042,1.64042,11,AutoTakeoff,
23500,2026-03-02 07:54:12,22.3091418704914,39.098323020691,1.968504,,,5.52001494042,1.968504,0,0.04938976536,1.21482615436,15,5,12.506,5.52001494042,1.968504,0.223694,0.290511492236,0,0,-1.11847,190.3, 0, 0.1,0,0,1024,1024,1024,1024,0,0,0,0,198.5,0,0,88,4.084,4.082,4.082,0,0,0,3.096,80.96,5.52001494042,1.968504,11,AutoTakeoff,
23600,2026-03-02 07:54:12,22.3091421387024,39.098323079333,1.968504,,,5.52001494042,2.296588,0,0.148200135976,1.31466211556,15,5,12.506,5.52001494042,1.968504,0.223694,0.290511492236,0,0,-1.11847,190.3, 0, 0,0,0,1024,1024,1024,1024,0,0,0,0,198.5,0,0,88,4.084,4.082,4.082,0,0,0,3.096,80.96,5.52001494042,1.968504,11,AutoTakeoff,
23700,2026-03-02 07:54:12,22.3091422364134,39.0983230513222,2.296588,,,5.84809894042,2.296588,0,0.183003286696,1.35154531884,15,5,12.506,5.84809894042,2.296588,0.223694,0.290511492236,0,0,-1.11847,190.3, 0, 0,0,0,1024,1024,962,1024,0,0,-9,0,198.5,-0.2,0,88,4.084,4.082,4.082,0,0,0,3.096,80.96,5.84809894042,2.296588,11,AutoTakeoff,
23800,2026-03-02 07:54:12,22.30914224644,39.0983227558845,2.296588,,,5.84809894042,2.624672,0,0.207886817676,1.45133534828,15,5,12.506,5.84809894042,2.296588,0.223694,0.290511492236,0,0,-1.11847,190.4, 0, -0.2,0,0,1024,1024,920,1024,0,0,-16,0,198.5,-0.4,0,88,4.084,4.082,4.082,0,0,0,3.096,80.96,5.84809894042,2.296588,11,AutoTakeoff,
23900,2026-03-02 07:54:12,22.3091423387653,39.0983227101287,2.624672,,,6.17618294042,2.624672,0,0.2449311102,1.48839243608,15,5,12.506,6.17618294042,2.624672,0.223694,0.290511492236,0,0,-1.11847,190.3, 0.1, -0.1,0,0,1024,1024,906,1024,0,0,-18,0,198.5,-0.7,0,88,4.084,4.082,4.082,0,0,0,3.096,80.96,6.17618294042,2.624672,11,AutoTakeoff,
24000,2026-03-02 07:54:12,22.3091423065411,39.0983229639441,2.624672,,,6.17618294042,2.952756,0,0.209539376784,1.5748688168,15,5,12.506,6.17618294042,2.624672,0.223694,0.290511492236,0,0,-0.894776,190.3, 0, 0,0,0,1024,1024,896,1024,0,0,-19,0,198.5,-1,0,88,4.084,4.082,4.082,0,0,0,3.096,80.96,6.17618294042,2.624672,11,AutoTakeoff,
24100,2026-03-02 07:54:12,22.3091423904716,39.0983229515782,2.952756,,,6.50426694042,2.952756,0,0.240430453888,1.60577104876,15,5,12.258,6.50426694042,2.952756,0.223694,0.290511492236,0,0,-0.894776,190.3, 0, 0.2,0,0,1024,1024,896,1024,0,0,-19,0,198.5,-1.3,0,88,4.079,4.077,4.078,0,0,0,5.958,81.14,6.50426694042,2.952756,11,AutoTakeoff,
24200,2026-03-02 07:54:12,22.3091423692999,39.0983227063992,2.952756,,,6.50426694042,3.28084,0,0.25552494256,1.68889113016,15,5,12.258,6.50426694042,2.952756,0.223694,0.290511492236,0,0,-0.894776,190.2, 0, 0.2,0,0,1024,1024,813,1024,0,0,-32,0,198.5,-1.6,0,88,4.079,4.077,4.078,0,0,0,5.958,81.14,6.50426694042,2.952756,11,AutoTakeoff,
24300,2026-03-02 07:54:12,22.3091424442612,39.0983226790533,3.28084,,,6.83235094042,3.28084,0,0.284223762376,1.71775596048,15,5,12.258,6.83235094042,3.28084,0.223694,0.290511492236,0,0,-0.671082,190.2, 0, 0.5,0,0,1024,1024,868,1024,0,0,-24,0,198.5,-1.9,0,88,4.079,4.077,4.078,0,0,0,5.958,81.14,6.83235094042,3.28084,11,AutoTakeoff,
24400,2026-03-02 07:54:13,22.3091424383302,39.0983226172095,3.28084,,,6.83235094042,3.28084,0,0.291584655,1.73874349396,15,5,12.258,6.83235094042,3.28084,0.223694,0.291584655,0,0,-0.671082,190.2, 0, 0.6,0,0,1024,1024,1024,1024,0,0,0,0,198.5,-2.2,0,88,4.079,4.077,4.078,0,0,0,5.958,81.14,6.83235094042,3.28084,11,AutoTakeoff,
24500,2026-03-02 07:54:13,22.3091425087093,39.0983225775268,3.28084,,,6.83235094042,3.608924,0,0.320543317344,1.76770346864,15,5,12.258,6.83235094042,3.28084,0.223694,0.320543317344,0,0,-0.671082,190.2, 0, 0.6,0,0,1024,1024,1024,1024,0,0,0,0,198.5,-2.5,0,88,4.079,4.077,4.078,0,0,0,5.958,81.14,6.83235094042,3.28084,31,Sport,"Appareil en zone GEO. Impossible d'utiliser FocusTrack (Code: 3201444)"
24600,2026-03-02 07:54:13,22.3091423515456,39.0983226424286,3.608924,,,7.16043494042,3.608924,0,0.2597933154,1.82908798504,15,5,12.258,7.16043494042,3.608924,0.223694,0.320543317344,0,0,-0.447388,190.2, 0.1, 0.5,0,0,1024,1024,1024,1024,0,0,0,0,185.9,-2.6,0,88,4.079,4.077,4.078,0,0,0,5.958,81.14,7.16043494042,3.608924,31,Sport,
24700,2026-03-02 07:54:13,22.3091424018017,39.0983226029151,3.608924,,,7.16043494042,3.608924,0,0.282353683576,1.85175858944,15,5,12.258,7.16043494042,3.608924,0.223694,0.320543317344,0,0,-0.223694,190.4, 0.3, 0.5,0,0,1024,1024,1024,1024,0,0,0,0,184.5,-2.6,0,88,4.079,4.077,4.078,0,0,0,5.958,81.14,7.16043494042,3.608924,31,Sport,
24800,2026-03-02 07:54:13,22.309142126895,39.0983226338314,3.608924,,,7.16043494042,3.608924,0,0.195235570552,1.95260176852,15,5,12.258,7.16043494042,3.608924,0.223694,0.320543317344,0,0,0,190.6, 0.3, 0.7,0,0,1024,1024,1024,1024,0,0,0,0,184.5,-2.6,0,88,4.079,4.077,4.078,0,0,0,5.958,81.14,7.16043494042,3.608924,31,Sport,
24900,2026-03-02 07:54:13,22.30914216022,39.0983225894579,3.608924,,,7.16043494042,3.608924,0,0.214357618408,1.97189310772,15,5,12.258,7.16043494042,3.608924,0.223694,0.320543317344,0,0,0,190.4, 0, 0.5,0,0,1024,1024,1024,1024,0,0,0,0,184.5,-2.6,0,88,4.079,4.077,4.078,0,0,0,5.958,81.14,7.16043494042,3.608924,31,Sport,
25000,2026-03-02 07:54:13,22.3091422673472,39.0983224632106,3.608924,,,7.16043494042,3.608924,0,0.272081045452,2.02971791272,15,5,12.258,7.16043494042,3.608924,0.223694,0.320543317344,0,0,0,190.3, -0.3, 0,0,0,1024,1024,1024,1024,0,0,0,0,184.5,-2.6,0,88,4.079,4.077,4.078,0,0,0,5.958,81.14,7.16043494042,3.608924,31,Sport,
25100,2026-03-02 07:54:13,22.309142302664,39.0983224056632,3.608924,,,7.16043494042,3.608924,0,0.29492455012,2.05302500008,15,5,12.233,7.16043494042,3.608924,0.223694,0.320543317344,0,0,0,190.2, -0.2, 0,0,0,1024,1024,1428,1024,0,0,61,0,184.5,-2.6,0,88,4.08,4.077,4.082,0,0,0,6.811,81.14,7.16043494042,3.608924,31,Sport,
25200,2026-03-02 07:54:13,22.3091423963389,39.0983226498477,3.608924,,,7.16043494042,3.608924,0,0.272879273824,2.14225400556,15,5,12.233,7.16043494042,3.608924,0.223694,0.320543317344,0,0,0,190.2, -0.3, 0.1,0,0,1024,1024,1428,1024,0,0,61,0,184.5,-2.6,0,88,4.08,4.077,4.082,0,0,0,6.811,81.14,7.16043494042,3.608924,31,Sport,
25300,2026-03-02 07:54:14,22.3091424289812,39.0983226198054,3.608924,,,7.16043494042,3.608924,0,0.288168644392,2.15789376984,15,5,12.233,7.16043494042,3.608924,0.223694,0.320543317344,0,0,0,190.2, -0.6, 0.1,0,0,1024,1024,1024,1024,0,0,0,0,184.5,-2.6,0,88,4.08,4.077,4.082,0,0,0,6.811,81.14,7.16043494042,3.608924,31,Sport,
25400,2026-03-02 07:54:14,22.3091424808581,39.0983226745565,3.608924,,,7.16043494042,3.608924,0,0.297033474072,2.18434718276,15,5,12.233,7.16043494042,3.608924,0.223694,0.320543317344,0,0,-0.447388,190.2, 0, 0,0,0,1024,1024,1024,1024,0,0,0,0,184.5,-2.6,0,88,4.08,4.077,4.082,0,0,0,6.811,81.14,7.16043494042,3.608924,31,Sport,
25500,2026-03-02 07:54:14,22.3091425101638,39.0983226478237,3.608924,,,7.16043494042,3.608924,0,0.310475075552,2.19833996536,15,5,12.233,7.16043494042,3.608924,0.223694,0.320543317344,0,0,-0.223694,190.2, 0.3, 0,0,0,1024,1024,1024,1024,0,0,0,0,184.5,-2.6,0,88,4.08,4.077,4.082,0,0,0,6.811,81.14,7.16043494042,3.608924,31,Sport,
25600,2026-03-02 07:54:14,22.3091424111847,39.0983227062646,3.608924,,,7.16043494042,3.608924,0,0.2694553892,2.23948826064,15,5,12.233,7.16043494042,3.608924,0.223694,0.320543317344,0,0,-0.223694,190.2, 0, 0,0,0,1024,1024,1024,1024,0,0,0,0,184.5,-2.6,0,88,4.08,4.077,4.082,0,0,0,6.811,81.14,7.16043494042,3.608924,31,Sport,
25700,2026-03-02 07:54:14,22.3091424375702,39.098322692127,3.608924,,,7.16043494042,3.608924,0,0.280189313428,2.25023301164,15,5,12.233,7.16043494042,3.608924,0.223694,0.320543317344,0,0,0,190.2, -0.1, 0,0,0,1024,1024,1024,1024,0,0,0,0,184.5,-2.6,0,88,4.08,4.077,4.082,0,0,0,6.811,81.14,7.16043494042,3.608924,31,Sport,
25800,2026-03-02 07:54:14,22.3091423851461,39.0983225740367,3.608924,,,7.16043494042,3.937008,0,0.282307423732,2.29444561148,15,5,12.233,7.16043494042,3.608924,0.223694,0.320543317344,0,0,0,190.1, -0.3, -0.4,0,0,1024,1024,1024,1024,0,0,0,0,184.5,-2.6,0,88,4.08,4.077,4.082,0,0,0,6.811,81.14,7.16043494042,3.608924,31,Sport,
25900,2026-03-02 07:54:14,22.3091423963972,39.0983225527389,3.608924,,,7.16043494042,3.937008,0,0.289682095884,2.3027231708,15,5,12.233,7.16043494042,3.608924,0.223694,0.320543317344,0,0,0,190.1, -0.2, -0.7,0,0,1024,1024,1024,1024,0,0,0,0,184.5,-2.6,0,88,4.08,4.077,4.082,0,0,0,6.811,81.14,7.16043494042,3.608924,31,Sport,
26000,2026-03-02 07:54:14,22.3091425157326,39.0983224636859,3.608924,,,7.16043494042,3.937008,0,0.34258203196,2.35562999664,15,5,12.233,7.16043494042,3.608924,0.223694,0.34258203196,0,0,0,190, -0.1, -0.6,0,0,1024,1024,1026,1024,0,0,0,0,184.5,-2.6,0,88,4.08,4.077,4.082,0,0,0,6.811,81.14,7.16043494042,3.608924,31,Sport,
26100,2026-03-02 07:54:14,22.3091425263107,39.0983224573625,3.608924,,,7.16043494042,3.608924,0,0.34697835756,2.3600394456,15,5,12.214,7.16043494042,3.608924,0.223694,0.34697835756,0,0,0,189.9, -0.1, -0.1,0,0,1024,1024,1024,1024,0,0,0,0,184.5,-2.6,0,88,4.076,4.072,4.068,0,0,0,6.368,81.14,7.16043494042,3.608924,31,Sport,
26200,2026-03-02 07:54:14,22.309142452009,39.0983222210508,3.608924,,,7.16043494042,3.608924,0,0.37758859476,2.44428485512,15,5,12.214,7.16043494042,3.608924,0.223694,0.37758859476,0,0,0,190.1, 0.1, 0.1,0,0,1024,1024,1024,1024,0,0,0,0,184.5,-2.6,0,88,4.076,4.072,4.068,0,0,0,6.368,81.14,7.16043494042,3.608924,31,Sport,
26300,2026-03-02 07:54:14,22.3091424590886,39.0983221988324,3.608924,,,7.16043494042,3.608924,0,0.38479988108,2.45221792624,15,5,12.214,7.16043494042,3.608924,0.223694,0.38479988108,0,0,0,190.1, 0, 0,0,0,1024,1024,1024,1024,0,0,0,0,184.5,-2.6,0,88,4.076,4.072,4.068,0,0,0,6.368,81.14,7.16043494042,3.608924,31,Sport,
26400,2026-03-02 07:54:15,22.30914242874,39.0983218234645,3.608924,,,7.16043494042,3.608924,0,0.47887468724,2.57940296968,15,5,12.214,7.16043494042,3.608924,0.223694,0.47887468724,0,0,0,190.1, -0.2, 0,0,0,1024,1024,1047,1024,0,0,3,0,184.5,-2.6,0,88,4.076,4.072,4.068,0,0,0,6.368,81.14,7.16043494042,3.608924,31,Sport,
26500,2026-03-02 07:54:15,22.309142439203,39.0983217665827,3.608924,,,7.16043494042,3.608924,0,0.4972441104,2.59897974196,15,5,12.214,7.16043494042,3.608924,0.223694,0.4972441104,0,0,0,190.2, -0.4, 0,0,0,1024,1024,1088,1024,0,0,10,0,184.5,-2.6,0,88,4.076,4.072,4.068,0,0,0,6.368,81.14,7.16043494042,3.608924,31,Sport,
26600,2026-03-02 07:54:15,22.3091424473628,39.0983215594993,3.608924,,,7.16043494042,3.608924,0,0.55964240636,2.66894037412,15,5,12.214,7.16043494042,3.608924,0.223694,0.55964240636,0,0,0,190.2, -0.5, 0,0,0,1024,1024,1087,1024,0,0,10,0,184.5,-2.6,0,88,4.076,4.072,4.068,0,0,0,6.368,81.14,7.16043494042,3.608924,31,Sport,
26700,2026-03-02 07:54:15,22.3091424579312,39.098321487709,3.608924,,,7.16043494042,3.608924,0,0.58294621288,2.69347777648,15,5,12.214,7.16043494042,3.608924,0.223694,0.58294621288,0,0,0,190.2, -0.6, 0.1,0,0,1024,1024,1097,1024,0,0,11,0,184.5,-2.6,0,88,4.076,4.072,4.068,0,0,0,6.368,81.14,7.16043494042,3.608924,31,Sport,
26800,2026-03-02 07:54:15,22.3091426167906,39.0983212860018,3.608924,,,7.16043494042,3.608924,0,0.6702099952,2.782890509,15,5,12.214,7.16043494042,3.608924,0.223694,0.6702099952,0,0,0,190.2, -0.6, 0.1,0,0,1024,1024,1112,1024,0,0,13,0,184.5,-2.6,0,88,4.076,4.072,4.068,0,0,0,6.368,81.14,7.16043494042,3.608924,31,Sport,
26900,2026-03-02 07:54:15,22.3091426349542,39.0983211952987,3.608924,,,7.16043494042,3.608924,0,0.70030514052,2.81421596932,15,5,12.214,7.16043494042,3.608924,0.223694,0.70030514052,0,0,0,190.2, -0.6, 0,0,0,1024,1024,1114,1024,0,0,14,0,184.5,-2.6,0,88,4.076,4.072,4.068,0,0,0,6.368,81.14,7.16043494042,3.608924,31,Sport,
27000,2026-03-02 07:54:15,22.3091425827543,39.0983210345786,3.608924,,,7.16043494042,3.608924,0,0.74050527304,2.87171269032,15,5,12.214,7.16043494042,3.608924,0.223694,0.74050527304,0,0,0,190.2, -0.7, 0,0,0,1024,1024,1110,1024,0,0,13,0,184.5,-2.6,0,88,4.076,4.072,4.068,0,0,0,6.368,81.14,7.16043494042,3.608924,31,Sport,
27100,2026-03-02 07:54:15,22.3091425893573,39.09832093399,3.608924,,,7.16043494042,3.608924,0,0.7724573738,2.90575140532,15,5,12.231,7.16043494042,3.608924,0.223694,0.7724573738,0,0,0,190.2, -0.8, 0,0,0,1024,1024,1110,1024,0,0,13,0,184.5,-2.6,0,88,4.061,4.061,4.061,0,0,0,7.009,81.14,7.16043494042,3.608924,31,Sport,
27200,2026-03-02 07:54:15,22.3091427016458,39.0983207956315,3.608924,,,7.16043494042,3.608924,0,0.83192587964,2.96787411072,15,5,12.231,7.16043494042,3.608924,0.223694,0.83192587964,0,0,0,190.2, -1, -0.2,0,0,1024,1024,1132,1024,0,0,16,0,184.5,-2.6,0,88,4.061,4.061,4.061,0,0,0,7.009,81.14,7.16043494042,3.608924,31,Sport,
27300,2026-03-02 07:54:16,22.3091427144031,39.0983206897654,3.608924,,,7.16043494042,3.937008,0,0.86633204872,3.00391085728,15,5,12.231,7.16043494042,3.608924,0.223694,0.86633204872,0,0,0,190.2, -0.9, -0.1,0,0,1024,1024,1137,1024,0,0,17,0,184.5,-2.6,0,88,4.061,4.061,4.061,0,0,0,7.009,81.14,7.16043494042,3.608924,31,Sport,
27400,2026-03-02 07:54:16,22.3091426634874,39.0983207451949,3.608924,,,7.16043494042,3.937008,0,0.84167981696,3.03027568752,15,5,12.231,7.16043494042,3.608924,0.223694,0.86633204872,0,0,0,190.2, -0.9, -0.1,0,0,1024,1024,1131,1024,0,0,16,0,184.5,-2.6,0,88,4.061,4.061,4.061,0,0,0,7.009,81.14,7.16043494042,3.608924,31,Sport,
27500,2026-03-02 07:54:16,22.3091426679899,39.0983206531986,3.937008,,,7.48851894042,3.937008,0,0.87083664204,3.06137148904,15,5,12.231,7.48851894042,3.937008,0.223694,0.87083664204,0,0,-0.223694,190.1, -0.7, 0,0,0,1024,1024,1131,1024,0,0,16,0,184.5,-2.6,0,88,4.061,4.061,4.061,0,0,0,7.009,81.14,7.48851894042,3.937008,31,Sport,
27600,2026-03-02 07:54:16,22.3091426382983,39.0983205445051,3.937008,,,7.48851894042,3.937008,0,0.90070212856,3.09962608344,15,5,12.231,7.48851894042,3.937008,0.223694,0.90070212856,0,0,-0.223694,190.2, -0.7, 0.1,0,0,1024,1024,1130,1024,0,0,16,0,184.5,-2.6,0,88,4.061,4.061,4.061,0,0,0,7.009,81.14,7.48851894042,3.937008,31,Sport,
27700,2026-03-02 07:54:16,22.3091426398977,39.0983204475529,3.937008,,,7.48851894042,3.937008,0,0.93144359936,3.13235574328,15,5,12.231,7.48851894042,3.937008,0.223694,0.93144359936,0,0,-0.223694,190.2, -0.7, 0.3,0,0,1024,1024,1129,1024,0,0,16,0,184.5,-2.6,0,88,4.061,4.061,4.061,0,0,0,7.009,81.14,7.48851894042,3.937008,31,Sport,
27800,2026-03-02 07:54:16,22.3091427867422,39.0983203250645,3.937008,,,7.48851894042,3.937008,0,0.98972444112,3.20002962996,15,5,12.231,7.48851894042,3.937008,0.223694,0.98972444112,0,0,0,190.1, -0.8, 0.3,0,0,1024,1024,1129,1024,0,0,16,0,184.5,-2.6,0,88,4.061,4.061,4.061,0,0,0,7.009,81.14,7.48851894042,3.937008,31,Sport,
27900,2026-03-02 07:54:16,22.309142798586,39.0983202047885,3.937008,,,7.48851894042,3.937008,0,1.02889110904,3.24085640292,15,5,12.231,7.48851894042,3.937008,0.223694,1.02889110904,0,0,-0.223694,190.2, -0.6, 0.2,0,0,1024,1024,1129,1024,0,0,16,0,184.5,-2.6,0,88,4.061,4.061,4.061,0,0,0,7.009,81.14,7.48851894042,3.937008,31,Sport,
28000,2026-03-02 07:54:16,22.3091427658508,39.0983200481389,3.937008,,,7.48851894042,3.937008,0,1.07380908948,3.2950788456,15,5,12.231,7.48851894042,3.937008,0.223694,1.07380908948,0,0,-0.223694,190.3, -0.6, -0.4,0,0,1024,1024,1127,1024,0,0,16,0,184.5,-2.6,0,88,4.061,4.061,4.061,0,0,0,7.009,81.14,7.48851894042,3.937008,31,Sport,
28100,2026-03-02 07:54:16,22.3091427611338,39.0983199083137,3.937008,,,7.48851894042,3.937008,0,1.11756237172,3.3422901332,15,5,12.185,7.48851894042,3.937008,0.223694,1.11756237172,0,0,-0.223694,190.3, -0.6, -0.4,0,0,1024,1024,1124,1024,0,0,15,0,184.5,-2.6,0,88,4.059,4.058,4.056,0,0,0,6.953,81.14,7.48851894042,3.937008,31,Sport,
28200,2026-03-02 07:54:16,22.3091427131802,39.0983199408222,3.937008,,,7.48851894042,3.937008,0,1.10143704312,3.3629594252,15,5,12.185,7.48851894042,3.937008,0.223694,1.11756237172,0,0,-0.223694,190.2, -0.4, -0.4,0,0,1024,1024,1124,1024,0,0,15,0,184.5,-2.6,0,88,4.059,4.058,4.056,0,0,0,6.953,81.14,7.48851894042,3.937008,31,Sport,
28300,2026-03-02 07:54:16,22.3091426885316,39.0983198166787,3.937008,,,7.48851894042,3.937008,0,1.13838258236,3.4058071956,15,5,12.185,7.48851894042,3.937008,0.223694,1.13838258236,0,0,-0.223694,190.2, -0.2, -0.4,0,0,1024,1024,1124,1024,0,0,15,0,184.5,-2.6,0,88,4.059,4.058,4.056,0,0,0,6.953,81.14,7.48851894042,3.937008,31,Sport,
28400,2026-03-02 07:54:17,22.3091428043312,39.0983197320687,3.937008,,,7.48851894042,4.265092,0,1.17890751804,3.4567914492,15,5,12.185,7.48851894042,3.937008,0.223694,1.17890751804,0,0,-0.223694,190.2, 0, -0.4,0,0,1024,1024,1124,1024,0,0,15,0,184.5,-2.6,0,88,4.059,4.058,4.056,0,0,0,6.953,81.14,7.48851894042,3.937008,31,Sport,
28500,2026-03-02 07:54:17,22.309142786483,39.098319614218,3.937008,,,7.48851894042,4.265092,0,1.21444557692,3.4971129728,15,5,12.185,7.48851894042,3.937008,0.223694,1.21444557692,0,0,-0.223694,190.2, 0, -0.2,0,0,1024,1024,1120,1024,0,0,15,0,184.5,-2.6,0,88,4.059,4.058,4.056,0,0,0,6.953,81.14,7.48851894042,3.937008,31,Sport,
28600,2026-03-02 07:54:17,22.3091426008745,39.0983195680652,3.937008,,,7.48851894042,4.265092,0,1.20981959252,3.566601164,15,5,12.185,7.48851894042,3.937008,0.223694,1.21444557692,0,0,-0.223694,190.2, 0.2, -0.2,0,0,1024,1024,1116,1024,0,0,14,0,184.5,-2.6,0,88,4.059,4.058,4.056,0,0,0,6.953,81.14,7.48851894042,3.937008,31,Sport,
28700,2026-03-02 07:54:17,22.3091425724048,39.0983194555067,4.265092,,,7.81660294042,4.265092,0,1.24394360936,3.605971244,15,5,12.185,7.81660294042,4.265092,0.223694,1.24394360936,0,0,-0.223694,190.2, 0.2, -0.2,0,0,1024,1024,1116,1024,0,0,14,0,184.5,-2.6,0,88,4.059,4.058,4.056,0,0,0,6.953,81.14,7.81660294042,4.265092,31,Sport,
28800,2026-03-02 07:54:17,22.3091424680568,39.0983193940166,4.265092,,,7.81660294042,4.265092,0,1.25541670684,3.6493439488,14,5,12.185,7.81660294042,4.265092,0.223694,1.25541670684,0,0,-0.223694,190.3, 0.1, -0.3,0,0,1024,1024,1118,1024,0,0,14,0,184.5,-2.6,0,88,4.059,4.058,4.056,0,0,0,6.953,81.14,7.81660294042,4.265092,31,Sport,
28900,2026-03-02 07:54:17,22.3091424401871,39.0983192929871,4.265092,,,7.81660294042,4.265092,0,1.28668639288,3.6849410628,14,5,12.185,7.81660294042,4.265092,0.223694,1.28668639288,0,0,-0.223694,190.3, 0.1, 0,0,0,1024,1024,1118,1024,0,0,14,0,184.5,-2.6,0,88,4.059,4.058,4.056,0,0,0,6.953,81.14,7.81660294042,4.265092,31,Sport,
29000,2026-03-02 07:54:17,22.3091425323994,39.0983192154024,4.265092,,,7.81660294042,4.265092,0,1.31936355928,3.7275591744,14,5,12.185,7.81660294042,4.265092,0.223694,1.31936355928,0,0,-0.223694,190.2, 0.1, 0,0,0,1024,1024,1127,1024,0,0,16,0,184.5,-2.6,0,88,4.059,4.058,4.056,0,0,0,6.953,81.14,7.81660294042,4.265092,31,Sport,
29100,2026-03-02 07:54:17,22.3091425202268,39.0983191208217,4.265092,,,7.81660294042,4.265092,0,1.34957025316,3.7598098316,14,5,12.177,7.81660294042,4.265092,0.223694,1.34957025316,0,0,0,190.3, 0.1, 0,0,0,1024,1024,1130,1024,0,0,16,0,184.5,-2.6,0,88,4.058,4.057,4.057,0,0,0,7.037,81.32,7.81660294042,4.265092,31,Sport,
29200,2026-03-02 07:54:17,22.3091424318935,39.0983188876698,4.265092,,,7.81660294042,4.265092,0,1.4204560822,3.8448492044,14,5,12.177,7.81660294042,4.265092,0.223694,1.4204560822,0,0,0,190.2, 0, 0.1,0,0,1024,1024,1131,1024,0,0,16,0,184.5,-2.6,0,88,4.058,4.057,4.057,0,0,0,7.037,81.32,7.81660294042,4.265092,31,Sport,
29300,2026-03-02 07:54:18,22.309142417709,39.0983187822057,4.265092,,,7.81660294042,4.265092,0,1.45459978408,3.8808072108,14,5,12.177,7.81660294042,4.265092,0.223694,1.45459978408,0,0,-0.223694,190.2, 0.1, 0.1,0,0,1024,1024,1131,1024,0,0,16,0,184.5,-2.6,0,88,4.058,4.057,4.057,0,0,0,7.037,81.32,7.81660294042,4.265092,31,Sport,
29400,2026-03-02 07:54:18,22.3091423224845,39.0983188827051,4.265092,,,7.81660294042,4.265092,0,1.41551513716,3.9293636428,14,5,12.177,7.81660294042,4.265092,0.223694,1.45459978408,0,0,-0.223694,190.3, 0.2, 0.3,0,0,1024,1024,1129,1024,0,0,16,0,184.5,-2.6,0,88,4.058,4.057,4.057,0,0,0,7.037,81.32,7.81660294042,4.265092,31,Sport,
29500,2026-03-02 07:54:18,22.3091423063071,39.0983187927218,4.265092,,,7.81660294042,4.265092,0,1.44468180476,3.960301964,14,5,12.177,7.81660294042,4.265092,0.223694,1.45459978408,0,0,-0.223694,190.2, 0.1, 0.3,0,0,1024,1024,1129,1024,0,0,16,0,184.5,-2.6,0,88,4.058,4.057,4.057,0,0,0,7.037,81.32,7.81660294042,4.265092,31,Sport,
29600,2026-03-02 07:54:18,22.3091423725007,39.0983186721878,4.265092,,,7.81660294042,4.593176,0,1.4885335122,4.0076116768,14,5,12.177,7.81660294042,4.265092,0.223694,1.4885335122,0,0,-0.223694,190.2, 0, 0.2,0,0,1024,1024,1129,1024,0,0,16,0,184.5,-2.6,0,88,4.058,4.057,4.057,0,0,0,7.037,81.32,7.81660294042,4.265092,31,Sport,
29700,2026-03-02 07:54:18,22.3091423672368,39.0983185770093,4.265092,,,7.81660294042,4.593176,0,1.51998364444,4.0397967172,14,5,12.177,7.81660294042,4.265092,0.223694,1.51998364444,0,0,-0.223694,190.3, 0, 0.3,0,0,1024,1024,1123,1024,0,0,15,0,184.5,-2.6,0,88,4.058,4.057,4.057,0,0,0,7.037,81.32,7.81660294042,4.265092,31,Sport,
29800,2026-03-02 07:54:18,22.309142410721,39.0983186069237,4.593176,,,8.14468694042,4.593176,0,1.51250661008,4.0585959304,14,5,12.177,8.14468694042,4.593176,0.223694,1.51998364444,0,0,-0.223694,190.2, -0.1, 0.5,0,0,1024,1024,1114,1024,0,0,14,0,184.5,-2.6,0,87,4.058,4.057,4.057,0,0,0,7.037,81.32,8.14468694042,4.593176,31,Sport,
29900,2026-03-02 07:54:18,22.3091424130011,39.0983185160459,4.593176,,,8.14468694042,4.593176,0,1.5429134352,4.0893045928,14,5,12.177,8.14468694042,4.593176,0.223694,1.5429134352,0,0,0,190.2, -0.1, 0.5,0,0,1024,1024,1024,1024,0,0,0,0,184.5,-2.6,0,87,4.058,4.057,4.057,0,0,0,7.037,81.32,8.14468694042,4.593176,31,Sport,
30000,2026-03-02 07:54:18,22.3091424371316,39.098318529694,4.593176,,,8.14468694042,4.593176,0,1.53980647972,4.099245538,14,5,12.177,8.14468694042,4.593176,0.223694,1.5429134352,0,0,0,190.2, 0, 0.6,0,0,1024,1024,1024,1024,0,0,0,0,184.5,-2.6,0,87,4.058,4.057,4.057,0,0,0,7.037,81.32,8.14468694042,4.593176,31,Sport,
30100,2026-03-02 07:54:18,22.3091424443793,39.0983184320725,4.593176,,,8.14468694042,4.593176,0,1.57273955164,4.1322835968,14,5,12.167,8.14468694042,4.593176,0.223694,1.57273955164,0,0,0,190.2, 0, 0.4,0,0,1024,1024,1024,1024,0,0,0,0,184.5,-2.6,0,87,4.055,4.054,4.053,0,0,0,6.966,81.5,8.14468694042,4.593176,31,Sport,
30200,2026-03-02 07:54:18,22.3091424531067,39.0983184155781,4.593176,,,8.14468694042,4.593176,0,1.5787566122,4.1387140432,14,5,12.167,8.14468694042,4.593176,0.223694,1.5787566122,0,0,0,190.2, 0, 0,0,0,1024,1024,1024,1024,0,0,0,0,184.5,-2.6,0,87,4.055,4.054,4.053,0,0,0,6.966,81.5,8.14468694042,4.593176,31,Sport,
30300,2026-03-02 07:54:18,22.3091424601193,39.0983183158551,4.593176,,,8.14468694042,4.593176,0,1.61237866052,4.1724738868,14,5,12.167,8.14468694042,4.593176,0.223694,1.61237866052,0,0,0,190.1, 0, -0.2,0,0,1024,1024,1024,1024,0,0,0,0,184.5,-2.6,0,87,4.055,4.054,4.053,0,0,0,6.966,81.5,8.14468694042,4.593176,31,Sport,
30400,2026-03-02 07:54:19,22.3091424531059,39.0983183094895,4.593176,,,8.14468694042,4.593176,0,1.61408141648,4.1758203436,14,5,12.167,8.14468694042,4.593176,0.223694,1.61408141648,0,0,0,190.1, 0.1, -0.1,0,0,1024,1024,1024,1024,0,0,0,0,184.5,-2.6,0,87,4.055,4.054,4.053,0,0,0,6.966,81.5,8.14468694042,4.593176,31,Sport,
30500,2026-03-02 07:54:19,22.3091424571377,39.0983182215072,4.593176,,,8.14468694042,4.593176,0,1.64362866152,4.205544754,14,5,12.167,8.14468694042,4.593176,0.223694,1.64362866152,0,0,0,190.1, 0.1, -0.1,0,0,1024,1024,1024,1024,0,0,0,0,184.5,-2.6,0,87,4.055,4.054,4.053,0,0,0,6.966,81.5,8.14468694042,4.593176,31,Sport,"Mise à jour du point de départ. L'altitude RTH a été ajustée à 20 m (Code: 120852)"
30600,2026-03-02 07:54:19,22.3091424419318,39.0983182435947,4.593176,,,8.14468694042,4.593176,0,1.6353839106,4.2148295312,14,5,12.167,8.14468694042,4.593176,0.223694,1.64362866152,0,0,0,190.1, 0.1, -0.3,0,0,1024,1024,1024,1024,0,0,0,0,184.5,-2.6,0,87,4.055,4.054,4.053,0,0,0,6.966,81.5,8.14468694042,4.593176,31,Sport,
30700,2026-03-02 07:54:19,22.3091424472436,39.0983181657806,4.593176,,,8.14468694042,4.593176,0,1.66162734976,4.2411746764,14,5,12.167,8.14468694042,4.593176,0.223694,1.66162734976,0,0,0,190.1, 0.1, -0.3,0,0,1024,1024,1024,1024,0,0,0,0,184.5,-2.6,0,87,4.055,4.054,4.053,0,0,0,6.966,81.5,8.14468694042,4.593176,31,Sport,
30800,2026-03-02 07:54:19,22.3091424408687,39.0983181928929,4.593176,,,8.14468694042,4.593176,0,1.65222774316,4.2506234956,14,5,12.167,8.14468694042,4.593176,0.223694,1.66162734976,0,0,0,190.1, 0, -0.4,0,0,1024,1024,1024,1024,0,0,0,0,184.5,-2.6,0,87,4.055,4.054,4.053,0,0,0,6.966,81.5,8.14468694042,4.593176,31,Sport,
30900,2026-03-02 07:54:19,22.3091424478337,39.0983181248756,4.593176,,,8.14468694042,4.593176,0,1.67530189088,4.2737206092,14,5,12.167,8.14468694042,4.593176,0.223694,1.67530189088,0,0,0,190.1, 0.1, -0.7,0,0,1024,1024,1024,1024,0,0,0,0,184.5,-2.6,0,87,4.055,4.054,4.053,0,0,0,6.966,81.5,8.14468694042,4.593176,31,Sport,
31000,2026-03-02 07:54:19,22.3091422847373,39.0983181285798,4.593176,,,8.14468694042,4.593176,0,1.6658629142,4.3332350468,14,5,12.167,8.14468694042,4.593176,0.223694,1.67530189088,0,0,0,190.1, 0.3, -0.7,0,0,1024,1024,1024,1024,0,0,0,0,184.5,-2.6,0,87,4.055,4.054,4.053,0,0,0,6.966,81.5,8.14468694042,4.593176,31,Sport,
31100,2026-03-02 07:54:19,22.3091422749737,39.0983180785741,4.593176,,,8.14468694042,4.593176,0,1.68219821656,4.3504922652,14,5,12.165,8.14468694042,4.593176,0.223694,1.68219821656,0,0,0,190.1, 0.3, -0.6,0,0,1024,1024,1024,1024,0,0,0,0,184.5,-2.6,0,87,4.057,4.055,4.055,0,0,0,6.823,81.5,8.14468694042,4.593176,31,Sport,
31200,2026-03-02 07:54:19,22.3091422934018,39.0983180810037,4.593176,,,8.14468694042,4.265092,0,1.6821850932,4.3572507956,14,5,12.165,8.14468694042,4.593176,0.223694,1.68219821656,0,0,0,190.1, 0.3, -0.6,0,0,1024,1024,1024,1024,0,0,0,0,184.5,-2.6,0,87,4.057,4.055,4.055,0,0,0,6.823,81.5,8.14468694042,4.593176,31,Sport,
31300,2026-03-02 07:54:20,22.3091422897929,39.098318050412,4.593176,,,8.14468694042,4.265092,0,1.69227695704,4.3676510584,14,5,12.165,8.14468694042,4.593176,0.223694,1.69227695704,0,0,0,190.1, 0.2, -0.6,0,0,1024,1024,1024,1024,0,0,0,0,184.5,-2.6,0,87,4.057,4.055,4.055,0,0,0,6.823,81.5,8.14468694042,4.593176,31,Sport,
31400,2026-03-02 07:54:20,22.3091421393642,39.0983180515493,4.593176,,,8.14468694042,4.265092,0,1.68621396472,4.4225395116,15,5,12.165,8.14468694042,4.593176,0.223694,1.69227695704,0,0,0,190, 0.2, -0.4,0,0,1024,1024,1024,1024,0,0,0,0,184.5,-2.6,0,87,4.057,4.055,4.055,0,0,0,6.823,81.5,8.14468694042,4.593176,31,Sport,
31500,2026-03-02 07:54:20,22.3091421210046,39.0983180354041,4.593176,,,8.14468694042,4.265092,0,1.69107288876,4.4311681208,15,5,12.165,8.14468694042,4.593176,0.223694,1.69227695704,0,0,0,190.1, 0.2, -0.2,0,0,1024,1024,1024,1024,0,0,0,0,184.5,-2.6,0,87,4.057,4.055,4.055,0,0,0,6.823,81.5,8.14468694042,4.593176,31,Sport,
31600,2026-03-02 07:54:20,22.3091419977295,39.0983179975598,4.593176,,,8.14468694042,4.265092,0,1.70067918828,4.4779528992,15,5,12.165,8.14468694042,4.593176,0.223694,1.70067918828,0,0,0,190.2, 0.2, -0.3,0,0,1024,1024,1024,1024,0,0,0,0,184.5,-2.6,0,87,4.057,4.055,4.055,0,0,0,6.823,81.5,8.14468694042,4.593176,31,Sport,
31700,2026-03-02 07:54:20,22.3091419686221,39.0983179851762,4.593176,,,8.14468694042,4.265092,0,1.70428811228,4.489337414,15,5,12.165,8.14468694042,4.593176,0.223694,1.70428811228,0,0,0,190.2, 0.3, -0.2,0,0,1024,1024,1024,1024,0,0,0,0,184.5,-2.6,0,87,4.057,4.055,4.055,0,0,0,6.823,81.5,8.14468694042,4.593176,31,Sport,
31800,2026-03-02 07:54:20,22.3091420184402,39.0983179052309,4.593176,,,8.14468694042,4.265092,0,1.73222774572,4.5218833468,15,5,12.165,8.14468694042,4.593176,0.223694,1.73222774572,0,0,0,190.3, 0.4, -0.1,0,0,1024,1024,1024,1024,0,0,0,0,184.5,-2.6,0,87,4.057,4.055,4.055,0,0,0,6.823,81.5,8.14468694042,4.593176,31,Sport,
31900,2026-03-02 07:54:20,22.3091419973017,39.0983178905371,4.593176,,,8.14468694042,4.265092,0,1.73673890072,4.5310696988,15,5,12.165,8.14468694042,4.593176,0.223694,1.73673890072,0,0,0,190.3, 0.4, -0.1,0,0,1024,1024,1024,1024,0,0,0,0,184.5,-2.6,0,87,4.057,4.055,4.055,0,0,0,6.823,81.5,8.14468694042,4.593176,31,Sport,
32000,2026-03-02 07:54:20,22.3091418844467,39.0983179531638,4.593176,,,8.14468694042,4.265092,0,1.71383207584,4.5773295428,15,5,12.165,8.14468694042,4.593176,0.223694,1.73673890072,0,0,0,190.3, 0.3, -0.2,0,0,1024,1024,1024,1024,0,0,0,0,184.5,-2.6,0,87,4.057,4.055,4.055,0,0,0,6.823,81.5,8.14468694042,4.593176,31,Sport,
32100,2026-03-02 07:54:20,22.3091418573884,39.0983179459934,4.593176,,,8.14468694042,4.265092,0,1.71596462184,4.5875001468,15,5,12.167,8.14468694042,4.593176,0.223694,1.73673890072,0,0,0,190.3, 0.3, -0.4,0,0,1024,1024,1024,1024,0,0,0,0,184.5,-2.6,0,87,4.053,4.052,4.052,0,0,0,6.681,81.5,8.14468694042,4.593176,31,Sport,
32200,2026-03-02 07:54:20,22.3091417586759,39.0983178180118,4.593176,,,8.14468694042,4.265092,0,1.75860569932,4.6437337444,15,5,12.167,8.14468694042,4.593176,0.223694,1.75860569932,0,0,0,190.2, 0.4, -0.2,0,0,1024,1024,1024,1024,0,0,0,0,184.5,-2.6,0,87,4.053,4.052,4.052,0,0,0,6.681,81.5,8.14468694042,4.593176,31,Sport,
32300,2026-03-02 07:54:20,22.309141722625,39.0983178060471,4.593176,,,8.14468694042,4.265092,0,1.76263129,4.6575132724,15,5,12.167,8.14468694042,4.593176,0.223694,1.76263129,0,0,0,190.2, 0.3, -0.1,0,0,1024,1024,1024,1024,0,0,0,0,184.5,-2.6,0,87,4.053,4.052,4.052,0,0,0,6.681,81.5,8.14468694042,4.593176,31,Sport,
32400,2026-03-02 07:54:21,22.3091416377358,39.0983178505903,4.593176,,,8.14468694042,4.265092,0,1.74795281184,4.691929284,15,5,12.167,8.14468694042,4.593176,0.223694,1.76263129,0,0,0,190.2, 0.3, 0,0,0,1024,1024,1024,1024,0,0,0,0,184.5,-2.6,0,87,4.053,4.052,4.052,0,0,0,6.681,81.5,8.14468694042,4.593176,31,Sport,
32500,2026-03-02 07:54:21,22.3091415966957,39.0983178404046,4.265092,,,7.81660294042,4.265092,0,1.75175858624,4.7072836152,15,5,12.167,8.14468694042,4.593176,0.223694,1.76263129,0,0,0,190.3, 0.4, 0,0,0,1024,1024,1024,1024,0,0,0,0,184.5,-2.6,0,87,4.053,4.052,4.052,0,0,0,6.681,81.5,7.81660294042,4.265092,31,Sport,
32600,2026-03-02 07:54:21,22.309141514806,39.0983178619263,4.265092,,,7.81660294042,4.265092,0,1.74561685376,4.7380578944,15,5,12.167,8.14468694042,4.593176,0.223694,1.76263129,0,0,0,190.3, 0.4, -0.1,0,0,1024,1024,1024,1024,0,0,0,0,184.5,-2.6,0,87,4.053,4.052,4.052,0,0,0,6.681,81.5,7.81660294042,4.265092,31,Sport,
32700,2026-03-02 07:54:21,22.3091414701622,39.0983178463211,4.265092,,,7.81660294042,4.265092,0,1.75170281196,4.7551510708,15,5,12.167,8.14468694042,4.593176,0.223694,1.76263129,0,0,0,190.3, 0.4, -0.2,0,0,1024,1024,1024,1024,0,0,0,0,184.5,-2.6,0,87,4.053,4.052,4.052,0,0,0,6.681,81.5,7.81660294042,4.265092,31,Sport,
32800,2026-03-02 07:54:21,22.3091415653333,39.0983178475831,4.265092,,,7.81660294042,4.265092,0,1.7497047804,4.7898951664,15,5,12.167,8.14468694042,4.593176,0.223694,1.76263129,0,0,0,190.3, 0.5, -0.3,0,0,1024,1024,1024,1024,0,0,0,0,184.5,-2.6,0,87,4.053,4.052,4.052,0,0,0,6.681,81.5,7.81660294042,4.265092,31,Sport,
32900,2026-03-02 07:54:21,22.3091415300384,39.0983178379018,4.265092,,,7.81660294042,4.265092,0,1.75347118472,4.8031825684,15,5,12.167,8.14468694042,4.593176,0.223694,1.76263129,0,0,0,190.3, 0.5, -0.4,0,0,1024,1024,1024,1024,0,0,0,0,184.5,-2.6,0,87,4.053,4.052,4.052,0,0,0,6.681,81.5,7.81660294042,4.265092,31,Sport,
33000,2026-03-02 07:54:21,22.3091414427864,39.0983176950675,4.265092,,,7.81660294042,4.265092,0,1.80324480836,4.8609581608,15,5,12.167,8.14468694042,4.593176,0.223694,1.80324480836,0,0,0,190.4, 0.5, -0.3,0,0,1024,1024,1024,1024,0,0,0,0,184.5,-2.6,0,87,4.053,4.052,4.052,0,0,0,6.681,81.5,7.81660294042,4.265092,31,Sport,
33100,2026-03-02 07:54:21,22.3091414038655,39.0983176865968,4.265092,,,7.81660294042,4.265092,0,1.80699480848,4.8754266652,15,5,12.157,8.14468694042,4.593176,0.223694,1.80699480848,0,0,0,190.3, 0.4, -0.2,0,0,1024,1024,1024,1024,0,0,0,0,184.5,-2.6,0,87,4.051,4.05,4.051,0,0,0,6.695,81.68,7.81660294042,4.265092,31,Sport,
33200,2026-03-02 07:54:21,22.3091413263292,39.0983177599312,4.265092,,,7.81660294042,4.265092,0,1.78443903348,4.9130250916,15,5,12.157,8.14468694042,4.593176,0.223694,1.80699480848,0,0,0,190.3, 0.3, -0.1,0,0,1024,1024,1024,1024,0,0,0,0,184.5,-2.6,0,87,4.051,4.05,4.051,0,0,0,6.695,81.68,7.81660294042,4.265092,31,Sport,
33300,2026-03-02 07:54:21,22.3091412863597,39.0983177668254,4.265092,,,7.81660294042,4.265092,0,1.78340228804,4.9277888716,15,5,12.157,8.14468694042,4.593176,0.223694,1.80699480848,0,0,0,190.3, 0.4, 0,0,0,1024,1024,1024,1024,0,0,0,0,184.5,-2.6,0,87,4.051,4.05,4.051,0,0,0,6.695,81.68,7.81660294042,4.265092,31,Sport,
33400,2026-03-02 07:54:22,22.309141223141,39.0983176560975,4.265092,,,7.81660294042,4.265092,0,1.82284126568,4.9717193192,15,5,12.157,8.14468694042,4.593176,0.223694,1.82284126568,0,0,0,190.3, 0.3, 0,0,0,1024,1024,1024,1024,0,0,0,0,184.5,-2.6,0,87,4.051,4.05,4.051,0,0,0,6.695,81.68,7.81660294042,4.265092,31,Sport,
33500,2026-03-02 07:54:22,22.3091411823362,39.0983176535097,4.265092,,,7.81660294042,4.265092,0,1.825295334,4.9866143328,15,5,12.157,8.14468694042,4.593176,0.223694,1.825295334,0,0,0,190.3, 0.2, 0.1,0,0,1024,1024,1024,1024,0,0,0,0,184.5,-2.6,0,87,4.051,4.05,4.051,0,0,0,6.695,81.68,7.81660294042,4.265092,31,Sport,
33600,2026-03-02 07:54:22,22.3091411269292,39.0983176832977,4.265092,,,7.81660294042,4.265092,0,1.81766081932,5.009186512,15,5,12.157,8.14468694042,4.593176,0.223694,1.825295334,0,0,0,190.4, 0.3, 0.1,0,0,1024,1024,1024,1024,0,0,0,0,184.5,-2.6,0,87,4.051,4.05,4.051,0,0,0,6.695,81.68,7.81660294042,4.265092,31,Sport,
33700,2026-03-02 07:54:22,22.3091410851689,39.0983176796167,4.265092,,,7.81660294042,4.265092,0,1.8208169874,5.0244752264,15,5,12.157,8.14468694042,4.593176,0.223694,1.825295334,0,0,0,190.3, 0.3, 0,0,0,1024,1024,1024,1024,0,0,0,0,184.5,-2.6,0,87,4.051,4.05,4.051,0,0,0,6.695,81.68,7.81660294042,4.265092,31,Sport,
33800,2026-03-02 07:54:22,22.3091410218014,39.098317516806,4.265092,,,7.81660294042,4.265092,0,1.8783793252,5.0841208976,15,5,12.157,8.14468694042,4.593176,0.223694,1.8783793252,0,0,0,190.3, 0.2, 0.1,0,0,1024,1024,1024,1024,0,0,0,0,184.5,-2.6,0,87,4.051,4.05,4.051,0,0,0,6.695,81.68,7.81660294042,4.265092,31,Sport,
33900,2026-03-02 07:54:22,22.3091409773106,39.0983175004658,4.265092,,,7.81660294042,4.265092,0,1.886154916,5.1012468824,15,5,12.157,8.14468694042,4.593176,0.223694,1.886154916,0,0,0,190.3, 0.3, 0.1,0,0,1024,1024,1024,1024,0,0,0,0,184.5,-2.6,0,87,4.051,4.05,4.051,0,0,0,6.695,81.68,7.81660294042,4.265092,31,Sport,
34000,2026-03-02 07:54:22,22.3091410716248,39.0983175231301,4.265092,,,7.81660294042,4.265092,0,1.87383208096,5.1365159124,15,5,12.157,8.14468694042,4.593176,0.223694,1.886154916,0,0,0,190.3, 0.3, 0.1,0,0,1024,1024,1024,1024,0,0,0,0,184.5,-2.6,0,87,4.051,4.05,4.051,0,0,0,6.695,81.68,7.81660294042,4.265092,31,Sport,
34100,2026-03-02 07:54:22,22.3091410366988,39.0983175107807,4.265092,,,7.81660294042,4.265092,0,1.87964901028,5.1499017396,15,5,12.153,8.14468694042,4.593176,0.223694,1.886154916,0,0,0,190.3, 0.4, 0.2,0,0,1024,1024,1024,1024,0,0,0,0,184.5,-2.6,0,87,4.046,4.045,4.046,0,0,0,6.684,81.5,7.81660294042,4.265092,31,Sport,
34200,2026-03-02 07:54:22,22.309140949318,39.0983173752333,4.265092,,,7.81660294042,4.265092,0,1.92946856568,5.2056760196,15,5,12.153,8.14468694042,4.593176,0.223694,1.92946856568,0,0,0,190.3, 0.3, 0.2,0,0,1024,1024,1024,1024,0,0,0,0,184.5,-2.6,0,87,4.046,4.045,4.046,0,0,0,6.684,81.5,7.81660294042,4.265092,31,Sport,
34300,2026-03-02 07:54:22,22.3091409122819,39.0983173452992,4.265092,,,7.81660294042,4.265092,0,1.94150596764,5.2225395372,15,5,12.153,8.14468694042,4.593176,0.223694,1.94150596764,0,0,0,190.4, 0.2, 0.1,0,0,1024,1024,1024,1024,0,0,0,0,184.5,-2.6,0,87,4.046,4.045,4.046,0,0,0,6.684,81.5,7.81660294042,4.265092,31,Sport,
34400,2026-03-02 07:54:23,22.3091409988159,39.0983172187276,4.265092,,,7.81660294042,4.265092,0,1.97919297672,5.2756563368,15,5,12.153,8.14468694042,4.593176,0.223694,1.97919297672,0,0,0,190.3, 0, -0.1,0,0,1024,1024,1097,1024,0,0,11,0,184.5,-2.6,0,87,4.046,4.045,4.046,0,0,0,6.684,81.5,7.81660294042,4.265092,31,Sport,
34500,2026-03-02 07:54:23,22.3091409715558,39.098317176227,4.265092,,,7.81660294042,4.265092,0,1.99477040504,5.293143214,15,5,12.153,8.14468694042,4.593176,0.223694,1.99477040504,0,0,0,190.4, 0, -0.1,0,0,1024,1024,1300,1024,0,0,42,0,184.5,-2.6,0,87,4.046,4.045,4.046,0,0,0,6.684,81.5,7.81660294042,4.265092,31,Sport,
34600,2026-03-02 07:54:23,22.3091410416032,39.098317070004,4.265092,,,7.81660294042,4.265092,0,2.02693247956,5.3371720868,15,5,12.153,8.14468694042,4.593176,0.223694,2.02693247956,0,0,0,190.4, -0.1, -0.2,0,0,1024,1024,1281,1024,0,0,39,0,184.5,-2.6,0,87,4.046,4.045,4.046,0,0,0,6.684,81.5,7.81660294042,4.265092,31,Sport,
34700,2026-03-02 07:54:23,22.309141015789,39.0983170213344,4.265092,,,7.81660294042,4.265092,0,2.04441935676,5.3561025336,15,5,12.153,8.14468694042,4.593176,0.223694,2.04441935676,0,0,-0.671082,190.4, -0.2, -0.3,0,0,1024,1024,1307,1024,0,0,43,0,184.5,-2.6,0,87,4.046,4.045,4.046,0,0,0,6.684,81.5,7.81660294042,4.265092,31,Sport,
34800,2026-03-02 07:54:23,22.3091410486024,39.0983169474347,4.265092,,,7.81660294042,4.593176,0,2.06767395068,5.3837600148,15,5,12.153,8.14468694042,4.593176,0.223694,2.06767395068,0,0,-0.894776,190.3, 0, 0,0,0,1024,1024,1240,1024,0,0,33,0,184.5,-2.6,0,87,4.046,4.045,4.046,0,0,0,6.684,81.5,7.81660294042,4.265092,31,Sport,
34900,2026-03-02 07:54:23,22.3091410224843,39.0983168955955,4.593176,,,8.14468694042,4.593176,0,2.08621069668,5.4036747136,15,5,12.153,8.14468694042,4.593176,0.223694,2.08621069668,0,0,-1.342164,190.3, 0, 0,0,0,1024,1024,1162,1024,0,0,21,0,184.5,-2.6,0,87,4.046,4.045,4.046,0,0,0,6.684,81.5,8.14468694042,4.593176,31,Sport,
35000,2026-03-02 07:54:23,22.3091410466111,39.0983166794691,4.92126,,,8.47277094042,4.92126,0,2.15756896668,5.4771655296,15,5,12.153,8.47277094042,4.92126,0.223694,2.15756896668,0,0,-1.342164,190.2, 0.4, 0,0,0,1024,1024,1113,1024,0,0,13,0,184.5,-2.6,0,87,4.046,4.045,4.046,0,0,0,6.684,81.5,8.47277094042,4.92126,31,Sport,
35100,2026-03-02 07:54:23,22.3091410294024,39.0983166110537,4.92126,,,8.47277094042,4.92126,0,2.18124022728,5.5010828532,15,5,12.137,8.47277094042,4.92126,0.223694,2.18124022728,0,0,-1.11847,190.2, 0.4, -0.1,0,0,1024,1024,1113,1024,0,0,13,0,184.5,-2.6,0,87,4.007,4.022,4.032,0,0,0,6.794,81.68,8.47277094042,4.92126,31,Sport,
35200,2026-03-02 07:54:23,22.3091412373558,39.0983165840807,5.249344,,,8.80085494042,5.249344,0,2.182660831,5.5775264252,15,5,12.137,8.80085494042,5.249344,0.223694,2.182660831,0,0,-0.671082,190.3, 0.3, -0.1,0,0,1024,1024,1144,1024,0,0,18,0,184.5,-2.6,0,87,4.007,4.022,4.032,0,0,0,6.794,81.68,8.80085494042,5.249344,31,Sport,
35300,2026-03-02 07:54:23,22.3091412451889,39.0983165206717,5.249344,,,8.80085494042,5.249344,0,2.2037566322,5.5991143524,15,5,12.137,8.80085494042,5.249344,0.223694,2.2037566322,0,0,-0.447388,190.3, 0, -0.3,0,0,1024,1024,1230,1024,0,0,31,0,184.5,-2.6,0,87,4.007,4.022,4.032,0,0,0,6.794,81.68,8.80085494042,5.249344,31,Sport,
35400,2026-03-02 07:54:24,22.3091414293284,39.0983161743617,5.249344,,,8.80085494042,5.249344,0,2.3160761896,5.733924068,15,5,12.137,8.80085494042,5.249344,0.223694,2.3160761896,0,0,-0.223694,190.3, 0, -0.3,0,0,1024,1024,1284,1024,0,0,39,0,184.5,-2.6,0,87,4.007,4.022,4.032,0,0,0,6.794,81.68,8.80085494042,5.249344,31,Sport,
35500,2026-03-02 07:54:24,22.3091414435119,39.0983160912018,5.249344,,,8.80085494042,5.249344,0,2.34387146608,5.762467376,15,5,12.137,8.80085494042,5.249344,0.223694,2.34387146608,0,0,-0.447388,190.3, -0.1, -0.3,0,0,1024,1024,1280,1024,0,0,39,0,184.5,-2.6,0,87,4.007,4.022,4.032,0,0,0,6.794,81.68,8.80085494042,5.249344,31,Sport,
35600,2026-03-02 07:54:24,22.3091413995314,39.0983159733688,5.577428,,,9.12893894042,5.577428,0,2.38437671672,5.8053479548,15,5,12.137,9.12893894042,5.577428,0.223694,2.38437671672,0,0,-0.894776,190.3, 0.1, 0,0,0,1024,1024,1238,1024,0,0,32,0,184.5,-2.6,0,87,4.007,4.022,4.032,0,0,0,6.794,81.68,9.12893894042,5.577428,31,Sport,
35700,2026-03-02 07:54:24,22.3091413987655,39.0983158870976,5.577428,,,9.12893894042,5.577428,0,2.41347120584,5.834481814,15,5,12.137,9.12893894042,5.577428,0.223694,2.41347120584,0,0,-1.11847,190.3, 0.5, 0.2,0,0,1024,1024,1098,1024,0,0,11,0,184.5,-2.6,0,87,4.007,4.022,4.032,0,0,0,6.794,81.68,9.12893894042,5.577428,31,Sport,
35800,2026-03-02 07:54:24,22.3091413445721,39.0983160866094,5.905512,,,9.45702294042,5.905512,0,2.34733603312,5.9046589816,15,5,12.137,9.45702294042,5.905512,0.223694,2.41347120584,0,0,-1.11847,190.2, 0.7, 0.4,0,0,1024,1024,1071,1024,0,0,7,0,184.5,-2.6,0,87,4.007,4.022,4.032,0,0,0,6.794,81.68,9.45702294042,5.905512,31,Sport,
35900,2026-03-02 07:54:24,22.3091413477451,39.0983160138394,5.905512,,,9.45702294042,5.905512,0,2.3717848528,5.9292652816,15,5,12.137,9.45702294042,5.905512,0.223694,2.41347120584,0,0,-0.894776,190.2, 0.9, 0.4,0,0,1024,1024,1127,1024,0,0,16,0,184.5,-2.6,0,87,4.007,4.022,4.032,0,0,0,6.794,81.68,9.45702294042,5.905512,31,Sport,
36000,2026-03-02 07:54:24,22.309141180381,39.0983158103219,5.905512,,,9.45702294042,6.233596,0,2.44465887088,6.02116161,15,5,12.137,9.45702294042,5.905512,0.223694,2.44465887088,0,0,-0.447388,190.2, 0.9, 0.1,0,0,1024,1024,1127,1024,0,0,16,0,184.5,-2.6,0,87,4.007,4.022,4.032,0,0,0,6.794,81.68,9.45702294042,5.905512,31,Sport,
36100,2026-03-02 07:54:24,22.3091411861595,39.0983157074778,6.233596,,,9.78510694042,6.233596,0,2.479084725,6.055938514,15,5,12.132,9.78510694042,6.233596,0.223694,2.479084725,0,0,-0.223694,190.2, 0.7, -0.1,0,0,1024,1024,1260,1024,0,0,36,0,184.5,-2.6,0,87,4.034,4.036,4.04,0,0,0,7.22,81.68,9.78510694042,6.233596,31,Sport,
36200,2026-03-02 07:54:24,22.3091410890731,39.0983158362888,6.233596,,,9.78510694042,6.233596,0,2.43892068172,6.112040878,15,5,12.132,9.78510694042,6.233596,0.223694,2.479084725,0,0,-0.223694,190.2, 0.3, -0.5,0,0,1024,1024,1281,1024,0,0,39,0,184.5,-2.6,0,87,4.034,4.036,4.04,0,0,0,7.22,81.68,9.78510694042,6.233596,31,Sport,
36300,2026-03-02 07:54:25,22.3091410969809,39.0983157490081,6.233596,,,9.78510694042,6.233596,0,2.46796923908,6.1416340548,15,5,12.132,9.78510694042,6.233596,0.223694,2.479084725,0,0,-0.671082,190.1, 0, -0.7,0,0,1024,1024,1284,1024,0,0,39,0,184.5,-2.6,0,87,4.034,4.036,4.04,0,0,0,7.22,81.68,9.78510694042,6.233596,31,Sport,
36400,2026-03-02 07:54:25,22.3091411589004,39.0983157254825,6.233596,,,9.78510694042,6.233596,0,2.4738517852,6.1655841868,15,5,12.132,9.78510694042,6.233596,0.223694,2.479084725,0,0,-0.894776,190.1, 0.2, -0.6,0,0,1024,1024,1285,1024,0,0,40,0,184.5,-2.6,0,87,4.034,4.036,4.04,0,0,0,7.22,81.68,9.78510694042,6.233596,31,Sport,
36500,2026-03-02 07:54:25,22.3091411655966,39.0983156572686,6.56168,,,10.11319094042,6.56168,0,2.49659128724,6.1887469172,15,5,12.132,10.11319094042,6.56168,0.223694,2.49659128724,0,0,-1.11847,190, 0.4, -0.6,0,0,1024,1024,1283,1024,0,0,39,0,184.5,-2.6,0,87,4.034,4.036,4.04,0,0,0,7.22,81.68,10.11319094042,6.56168,31,Sport,
36600,2026-03-02 07:54:25,22.3091411686167,39.0983156946852,6.56168,,,10.11319094042,6.56168,0,2.48391412148,6.2014109596,15,5,12.132,10.11319094042,6.56168,0.223694,2.49659128724,0,0,-1.342164,190, 0.5, -0.4,0,0,1024,1024,1212,1024,0,0,28,0,184.5,-2.6,0,87,4.034,4.036,4.04,0,0,0,7.22,81.68,10.11319094042,6.56168,31,Sport,
36700,2026-03-02 07:54:25,22.3091411801323,39.0983156409293,6.889764,,,10.44127494042,6.889764,0,2.50165362336,6.2200461308,15,5,12.132,10.44127494042,6.889764,0.223694,2.50165362336,0,0,-1.342164,190.1, 0.5, -0.2,0,0,1024,1024,1118,1024,0,0,14,0,184.5,-2.6,0,87,4.034,4.036,4.04,0,0,0,7.22,81.68,10.44127494042,6.889764,31,Sport,
36800,2026-03-02 07:54:25,22.3091411656378,39.0983154848556,7.217848,,,10.76935894042,7.217848,0,2.55458997676,6.27296608,15,5,12.132,10.76935894042,7.217848,0.223694,2.55458997676,0,0,-1.342164,190, 0.7, -0.2,0,0,1024,1024,1118,1024,0,0,14,0,184.5,-2.6,0,87,4.034,4.036,4.04,0,0,0,7.22,81.68,10.76935894042,7.217848,31,Sport,
36900,2026-03-02 07:54:25,22.3091411856433,39.0983154202505,7.217848,,,10.76935894042,7.217848,0,2.57574483308,6.2959647684,15,5,12.132,10.76935894042,7.217848,0.223694,2.57574483308,0,0,-0.894776,190.1, 0.7, -0.2,0,0,1024,1024,1024,1024,0,0,0,0,184.5,-2.6,0,87,4.034,4.036,4.04,0,0,0,7.22,81.68,10.76935894042,7.217848,31,Sport,
37000,2026-03-02 07:54:25,22.3091410321797,39.0983154175532,7.545932,,,11.09744294042,7.217848,0,2.58161425584,6.3519687072,14,5,12.132,11.09744294042,7.545932,0.223694,2.58161425584,0,0,-0.447388,190.1, 0.5, -0.5,0,0,1024,1024,1024,1024,0,0,0,0,184.5,-2.6,0,87,4.034,4.036,4.04,0,0,0,7.22,81.68,11.09744294042,7.545932,31,Sport,
37100,2026-03-02 07:54:25,22.3091410494074,39.098315362615,7.545932,,,11.09744294042,7.217848,0,2.59945546376,6.371555322,14,5,12.062,11.09744294042,7.545932,0.223694,2.59945546376,0,0,-0.223694,190.1, 0.1, -0.6,0,0,1024,1024,1187,1024,0,0,25,0,184.5,-2.6,0,87,4.036,4.045,4.051,0,0,0,7.182,81.86,11.09744294042,7.545932,31,Sport,
37200,2026-03-02 07:54:25,22.3091410807575,39.098315340968,7.545932,,,11.09744294042,7.217848,0,2.60565297052,6.3851379996,15,5,12.062,11.09744294042,7.545932,0.223694,2.60565297052,0,0,0,190, -0.2, -0.6,0,0,1024,1024,1250,1024,0,0,34,0,184.5,-2.6,0,87,4.036,4.045,4.051,0,0,0,7.182,81.86,11.09744294042,7.545932,31,Sport,
37300,2026-03-02 07:54:25,22.3091411006554,39.0983152985551,7.545932,,,11.09744294042,7.217848,0,2.619258614,6.4011813072,15,5,12.062,11.09744294042,7.545932,0.223694,2.619258614,0,0,0,189.9, -0.6, -0.8,0,0,1024,1024,1110,1024,0,0,13,0,184.5,-2.6,0,87,4.036,4.045,4.051,0,0,0,7.182,81.86,11.09744294042,7.545932,31,Sport,
37400,2026-03-02 07:54:26,22.3091410876922,39.0983151240528,7.545932,,,11.09744294042,7.545932,0,2.6783465424,6.4602692356,14,5,12.062,11.09744294042,7.545932,0.223694,2.6783465424,0,0,-0.447388,189.8, -0.3, -0.5,0,0,1024,1024,1024,1024,0,0,0,0,184.5,-2.6,0,87,4.036,4.045,4.051,0,0,0,7.182,81.86,11.09744294042,7.545932,31,Sport,
37500,2026-03-02 07:54:26,22.309141088487,39.0983150825614,7.545932,,,11.09744294042,7.545932,0,2.6922737082,6.4742784224,14,5,12.062,11.09744294042,7.545932,0.223694,2.6922737082,0,0,-0.447388,189.8, 0.2, 0,0,0,1024,1024,1148,1024,0,0,19,0,184.5,-2.6,0,87,4.036,4.045,4.051,0,0,0,7.182,81.86,11.09744294042,7.545932,31,Sport,
37600,2026-03-02 07:54:26,22.3091410395926,39.0983154013445,7.545932,,,11.09744294042,7.545932,0,2.58679142136,6.5833663524,14,5,12.062,11.09744294042,7.545932,0.223694,2.6922737082,0,0,-0.223694,189.9, 0.3, 0,0,0,1024,1024,1244,1024,0,0,33,0,184.5,-2.6,0,87,4.036,4.045,4.051,0,0,0,7.182,81.86,11.09744294042,7.545932,31,Sport,
37700,2026-03-02 07:54:26,22.3091410423849,39.0983153762484,7.545932,,,11.09744294042,7.545932,0,2.59512147412,6.5918965364,14,5,12.062,11.09744294042,7.545932,0.223694,2.6922737082,0,0,0,190, 0, -0.3,0,0,1024,1024,1244,1024,0,0,33,0,184.5,-2.6,0,87,4.036,4.045,4.051,0,0,0,7.182,81.86,11.09744294042,7.545932,31,Sport,
37800,2026-03-02 07:54:26,22.3091410102119,39.0983152621917,7.874016,,,11.42552694042,7.545932,0,2.63459326016,6.6321196348,14,5,12.062,11.42552694042,7.874016,0.223694,2.6922737082,0,0,-0.447388,190, -0.4, -0.5,0,0,1024,1024,1067,1024,0,0,7,0,184.5,-2.6,0,87,4.036,4.045,4.051,0,0,0,7.182,81.86,11.42552694042,7.874016,31,Sport,
37900,2026-03-02 07:54:26,22.3091410056012,39.0983152264096,7.874016,,,11.42552694042,7.874016,0,2.64677829992,6.6443243596,14,5,12.062,11.42552694042,7.874016,0.223694,2.6922737082,0,0,-0.447388,189.9, 0, -0.3,0,0,1024,1024,1024,1024,0,0,0,0,184.5,-2.6,0,87,4.036,4.045,4.051,0,0,0,7.182,81.86,11.42552694042,7.874016,31,Sport,
38000,2026-03-02 07:54:26,22.3091411737047,39.0983150905247,7.874016,,,11.42552694042,7.874016,0,2.68704404924,6.7208991652,14,5,12.062,11.42552694042,7.874016,0.223694,2.6922737082,0,0,-0.223694,189.9, 0, -0.4,0,0,1024,1024,1024,1024,0,0,0,0,184.5,-2.6,0,87,4.036,4.045,4.051,0,0,0,7.182,81.86,11.42552694042,7.874016,31,Sport,
38100,2026-03-02 07:54:26,22.3091411848937,39.0983150376867,7.874016,,,11.42552694042,7.874016,0,2.70452108392,6.7392062524,14,5,12.072,11.42552694042,7.874016,0.223694,2.70452108392,0,0,0,189.9, -0.1, -0.6,0,0,1024,1024,1024,1024,0,0,0,0,184.5,-2.6,0,87,4.023,4.011,4.014,0,0,0,7.035,81.86,11.42552694042,7.874016,31,Sport,
38200,2026-03-02 07:54:26,22.3091409985945,39.0983149447239,7.874016,,,11.42552694042,7.874016,0,2.74164378852,6.8140750212,14,5,12.072,11.42552694042,7.874016,0.223694,2.74164378852,0,0,0,189.9, -0.1, -0.7,0,0,1024,1024,1024,1024,0,0,0,0,184.5,-2.6,0,87,4.023,4.011,4.014,0,0,0,7.035,81.86,11.42552694042,7.874016,31,Sport,
38300,2026-03-02 07:54:27,22.3091409935408,39.0983148813954,7.874016,,,11.42552694042,7.874016,0,2.76309720128,6.8355317148,14,5,12.072,11.42552694042,7.874016,0.223694,2.76309720128,0,0,0,190, -0.2, -0.8,0,0,1024,1024,1024,1024,0,0,0,0,184.5,-2.6,0,87,4.023,4.011,4.014,0,0,0,7.035,81.86,11.42552694042,7.874016,31,Sport,
