time(millisecond),datetime(utc),latitude,longitude,height_above_takeoff(feet),height_above_ground_at_drone_location(feet),ground_elevation_at_drone_location(feet),altitude_above_seaLevel(feet),height_sonar(feet),speed(mph),distance(feet),mileage(feet),satellites,gpslevel,voltage(v),max_altitude(feet),max_ascent(feet),max_speed(mph),max_distance(feet), xSpeed(mph), ySpeed(mph), zSpeed(mph), compass_heading(degrees), pitch(degrees), roll(degrees),isPhoto,isVideo,rc_elevator,rc_aileron,rc_throttle,rc_rudder,rc_elevator(percent),rc_aileron(percent),rc_throttle(percent),rc_rudder(percent),gimbal_heading(degrees),gimbal_pitch(degrees),gimbal_roll(degrees),battery_percent,voltageCell1,voltageCell2,voltageCell3,voltageCell4,voltageCell5,voltageCell6,current(A),battery_temperature(f),altitude(feet),ascent(feet),flycStateRaw,flycState,message
0,2026-03-02 07:57:55,22.3091323591379,39.0983712050504,0,Available with any HD 360 subscription,Available with any HD 360 subscription,4.064607741616,0.328084,0,0,0,30,5,0,4.064607741616,0,0,0,0,0,0,3.6, -6.5, -0.8,0,0,1024,1024,1024,1024,0,0,0,0,13.6,0,0,79,4.006,3.99,0,0,0,0,0,123.98,4.064607741616,0,41,Motors_Started,"Setting new Return-To-Home altitude to 100m (328 ft). Data Recorder File Index is 21. Setting new Maximum Flight Altitude to 120m (394 ft) Aircraft storage full. Back up file and clear space (Code: 10062). Aircraft not in flight. Vision systems and obstacle avoidance disabled (Code: 180059)"
200,2026-03-02 07:57:55,22.309132328406,39.0983712108889,0,,,4.064607741616,0.328084,0,0.0113843835664,0.0113843835664,30,5,0,4.064607741616,0,0,0.0113843835664,0,0,0,3.7, -6.5, -0.6,0,0,1024,1024,1024,1024,0,0,0,0,13.6,0,0,79,4.006,3.99,0,0,0,0,0,123.98,4.064607741616,0,41,Motors_Started,
400,2026-03-02 07:57:55,22.3091323079823,39.0983712224548,0,,,4.064607741616,0,0,0.0195668313348,0.0197966869852,30,5,0,4.064607741616,0,0,0.0195668313348,0,0,0,3.4, -6.4, -1.1,0,0,1024,1024,1024,1024,0,0,0,0,13.6,0,0,79,4.006,3.99,0,0,0,0,0,123.98,4.064607741616,0,41,Motors_Started,
600,2026-03-02 07:57:55,22.3091322922073,39.0983712251865,0,,,4.064607741616,0,0,0.0253478354568,0.0256255913712,30,5,0,4.064607741616,0,0,0.0253478354568,0,0,0,3.5, -6.4, -1,0,0,1024,1024,1024,1024,0,0,0,0,13.6,0,0,79,4.006,3.99,0,0,0,0,0,123.98,4.064607741616,0,41,Motors_Started,
800,2026-03-02 07:57:56,22.3091322824827,39.0983712249411,0,,,4.064607741616,0,0,0.0287622056448,0.0291745744244,30,5,0,4.064607741616,0,0,0.0287622056448,0,0,0,3.5, -6.4, -1,0,0,1024,1024,1024,1024,0,0,0,0,13.6,0,0,79,4.006,3.99,0,0,0,0,0,123.98,4.064607741616,0,41,Motors_Started,
1000,2026-03-02 07:57:56,22.3091322793151,39.0983712233299,0,,,4.064607741616,0,0,0.0297697516088,0.0304518710532,30,5,0,4.064607741616,0,0,0.0297697516088,0,0,0,3.5, -6.4, -0.9,0,0,1024,1024,1024,1024,0,0,0,0,13.6,0,0,79,4.006,3.99,0,0,0,0,0,123.98,4.064607741616,0,41,Motors_Started,
1200,2026-03-02 07:57:56,22.3091322975392,39.0983712218251,0,,,4.064607741616,0,0,0.0231765427364,0.037120408012,30,5,8.004,4.064607741616,0,0,0.0297697516088,0,0,0,3.5, -6.4, -0.9,0,0,1024,1024,1024,1024,0,0,0,0,13.6,0,0,79,4.006,3.99,0,0,0,0,2.405,123.98,4.064607741616,0,41,Motors_Started,
1400,2026-03-02 07:57:56,22.309132330339,39.0983712206583,0,,,4.064607741616,0,0,0.0117540686176,0.049093833592,30,5,8.004,4.064607741616,0,0,0.0297697516088,0,0,0,3.5, -6.4, -0.9,0,0,1024,1024,1024,1024,0,0,0,0,13.6,0,0,79,4.006,3.99,0,0,0,0,2.405,123.98,4.064607741616,0,41,Motors_Started,
1600,2026-03-02 07:57:56,22.3091323583198,39.0983712186489,0,,,4.064607741616,0,0,0.00459973768,0.059325133132,30,5,8.004,4.064607741616,0,0,0.0297697516088,0,0,0,3.5, -6.5, -0.9,0,0,1024,1024,1024,1024,0,0,0,0,13.6,0,0,79,4.006,3.99,0,0,0,0,2.405,123.98,4.064607741616,0,11,AutoTakeoff,
1800,2026-03-02 07:57:57,22.3091323671502,39.0983712329095,0,,,4.064607741616,0,0,0.00984744126,0.065117128068,30,5,8.004,4.064607741616,0,0,0.0297697516088,0,0,0,3.5, -6.5, -0.8,0,0,1024,1024,1024,1024,0,0,0,0,13.6,0,0,79,4.006,3.99,0,0,0,0,2.405,123.98,4.064607741616,0,11,AutoTakeoff,
2000,2026-03-02 07:57:57,22.3091323793025,39.0983712656162,0,,,4.064607741616,0,0,0.021726870774,0.077014110076,30,5,8.004,4.064607741616,0,0,0.0297697516088,0,0,0,2.8, -5.9, 0.6,0,0,1024,1024,1024,1024,0,0,0,0,13.6,0,0,79,4.006,3.99,0,0,0,0,2.405,123.98,4.064607741616,0,11,AutoTakeoff,
2200,2026-03-02 07:57:57,22.3091325143353,39.0983713385581,0,,,4.064607741616,0,0.223694,0.0723671283,0.132090227324,30,5,8.013,4.064607741616,0,0.223694,0.0723671283,0.223694,0,-0.447388,1.4, -1.3, 1.7,0,0,1024,1024,1024,1024,0,0,0,0,13.4,0,0,79,3.999,3.977,0,0,0,0,2.547,123.98,4.064607741616,0,11,AutoTakeoff,
2400,2026-03-02 07:57:57,22.3091327349866,39.098371525353,0,,,4.064607741616,0.328084,0,0.174622380916,0.234346792276,30,5,8.013,4.064607741616,0,0.223694,0.174622380916,0,0,-0.894776,1.3, 2.3, -1.3,0,0,1024,1024,1024,1024,0,0,0,0,13.2,0,0,79,3.999,3.977,0,0,0,0,2.547,123.98,4.064607741616,0,11,AutoTakeoff,
2600,2026-03-02 07:57:57,22.3091327445313,39.0983716900441,0.656168,,,4.720775741616,0.328084,0,0.21580217226,0.290045612956,30,5,8.013,4.720775741616,0.656168,0.223694,0.21580217226,0,0,-0.894776,1.3, -0.2, -0.4,0,0,1024,1024,1024,1024,0,0,0,0,13.1,0,0,79,3.999,3.977,0,0,0,0,2.547,123.98,4.720775741616,0.656168,11,AutoTakeoff,
2800,2026-03-02 07:57:58,22.3091325414348,39.0983717928406,0.656168,,,4.720775741616,0,0.223694,0.209254271788,0.3718668098,30,5,8.013,4.720775741616,0.656168,0.223694,0.21580217226,-0.223694,0,-0.894776,1.3, -3.1, -1.3,0,0,1024,1024,1024,1024,0,0,0,0,12.9,0,0,79,3.999,3.977,0,0,0,0,2.547,123.98,4.720775741616,0.656168,11,AutoTakeoff,
3000,2026-03-02 07:57:58,22.3091323105267,39.0983718035175,0.984252,,,5.048859741616,0,0.223694,0.20278379914,0.45619095948,30,5,8.013,5.048859741616,0.984252,0.223694,0.21580217226,-0.223694,0,-0.894776,1.3, -3.8, 0.8,0,0,1024,1024,795,1024,0,0,-35,0,12.8,0,0,79,3.999,3.977,0,0,0,0,2.547,123.98,5.048859741616,0.984252,11,AutoTakeoff,
3200,2026-03-02 07:57:58,22.309132115026,39.0983718076383,1.312336,,,5.376943741616,0,0.223694,0.222042658024,0.52753282528,30,5,7.953,5.376943741616,1.312336,0.223694,0.222042658024,-0.223694,0,-1.11847,1.4, -2.2, 0,0,0,1024,1024,754,1024,0,0,-41,0,12.7,0,0,79,3.986,3.96,0,0,0,0,5.256,123.98,5.376943741616,1.312336,11,AutoTakeoff,
3400,2026-03-02 07:57:58,22.3091318703636,39.0983718134999,1.64042,,,5.705027741616,0,0.223694,0.271993775108,0.61682088588,30,5,7.953,5.705027741616,1.64042,0.223694,0.271993775108,-0.223694,0,-1.11847,1.4, -2.8, 0,0,0,1024,1024,776,1024,0,0,-38,0,12.7,0,0,79,3.986,3.96,0,0,0,0,5.256,123.98,5.705027741616,1.64042,11,AutoTakeoff,
3600,2026-03-02 07:57:58,22.3091316188326,39.0983718211071,1.968504,,,6.033111741616,0,0.223694,0.34087271432,0.70862535076,30,5,7.953,6.033111741616,1.968504,0.223694,0.34087271432,-0.223694,0,-1.11847,1.3, -2.8, -0.2,0,0,1024,1024,779,1024,0,0,-37,0,12.6,0,0,79,3.986,3.96,0,0,0,0,5.256,123.98,6.033111741616,1.968504,11,AutoTakeoff,
3800,2026-03-02 07:57:59,22.309131378156,39.098371833048,2.296588,,,6.361195741616,0,0.223694,0.41597114192,0.79652889688,28,5,7.953,6.361195741616,2.296588,0.223694,0.41597114192,-0.223694,0,-0.894776,1.4, -2.9, 0,0,0,1024,1024,423,1024,0,0,-91,0,12.5,0,0,79,3.986,3.96,0,0,0,0,5.256,123.98,6.361195741616,2.296588,11,AutoTakeoff,
4000,2026-03-02 07:57:59,22.3091311270084,39.0983718700931,2.624672,,,6.689279741616,0,0.223694,0.50247376936,0.8890092148,29,5,7.953,6.689279741616,2.624672,0.223694,0.50247376936,-0.223694,0,-0.894776,1.5, -3.5, -0.4,0,0,1024,1024,364,1024,0,0,-100,0,12.5,0,0,79,3.986,3.96,0,0,0,0,5.256,123.98,6.689279741616,2.624672,11,AutoTakeoff,"Home Point updated (Code: 3000001)"
4200,2026-03-02 07:57:59,22.309130886593,39.0983719111015,2.952756,,,7.017363741616,0,0.223694,0.58774280096,0.97781171108,30,5,7.953,7.017363741616,2.952756,0.223694,0.58774280096,-0.223694,0,-0.894776,1.4, -5.1, -1.2,0,0,1024,1024,364,975,0,0,-100,-7,12.4,0,0,79,3.986,3.96,0,0,0,0,5.256,123.98,7.017363741616,2.952756,11,AutoTakeoff,
4400,2026-03-02 07:57:59,22.3091307081342,39.0983719054065,3.28084,,,7.345447741616,0,0.223694,0.64709319656,1.04294950844,29,5,7.947,7.345447741616,3.28084,0.223694,0.64709319656,-0.223694,0,-0.223694,1.3, -4, 0.6,0,0,1024,1024,364,1024,0,0,-100,0,12.4,0,0,79,3.986,3.959,0,0,0,0,5.639,123.98,7.345447741616,3.28084,11,AutoTakeoff,
4600,2026-03-02 07:58:00,22.3091305245865,39.0983718859973,3.28084,,,7.345447741616,0,0.223694,0.70770015388,1.110236256,29,5,7.947,7.345447741616,3.28084,0.223694,0.70770015388,-0.223694,0,0,1.2, -5.3, 0.2,0,0,1024,1024,1024,1024,0,0,0,0,12.3,0,0,79,3.986,3.959,0,0,0,0,5.639,123.98,7.345447741616,3.28084,11,AutoTakeoff,
4800,2026-03-02 07:58:00,22.309130337702,39.0983718812052,2.952756,,,7.017363741616,0,0.223694,0.77202430292,1.17844163876,29,5,7.947,7.345447741616,3.28084,0.223694,0.77202430292,-0.223694,0,0.671082,1.3, -4.5, 0.1,0,0,1024,1024,1024,1024,0,0,0,0,12.3,0,0,79,3.986,3.959,0,0,0,0,5.639,123.98,7.017363741616,2.952756,11,AutoTakeoff,
5000,2026-03-02 07:58:00,22.3091301691123,39.0983719461047,2.952756,,,7.017363741616,0,0.223694,0.83726708716,1.2437336356,29,5,7.947,7.345447741616,3.28084,0.223694,0.83726708716,-0.223694,0,0,1.3, -4.7, -0.4,0,0,1024,1024,1024,1024,0,0,0,0,12.3,0,0,79,3.986,3.959,0,0,0,0,5.639,123.98,7.017363741616,2.952756,11,AutoTakeoff,
5200,2026-03-02 07:58:00,22.3091300681846,39.0983720535127,2.952756,,,7.017363741616,0.328084,0,0.88355645872,1.29541014644,30,5,7.947,7.345447741616,3.28084,0.223694,0.88355645872,0,0,-0.671082,1.3, -2.5, -2.3,0,0,1024,1024,1024,1024,0,0,0,0,12.2,0,0,79,3.986,3.959,0,0,0,0,5.639,123.98,7.017363741616,2.952756,11,AutoTakeoff,"Remove gimbal protector Land aircraft and remove gimbal protector to ensure flight safety (Code: 30316). Land aircraft and remove gimbal protector to ensure flight safety (Code: 1612000B). Aircraft storage full. Back up file and clear space (Code: 10062). Aircraft not in fl"
5400,2026-03-02 07:58:00,22.3091299209545,39.0983720903402,3.608924,,,7.673531741616,0.328084,0.223694,0.9384186652,1.35054794348,30,5,7.951,7.673531741616,3.608924,0.223694,0.9384186652,-0.223694,0,-1.11847,1.3, -2.4, -1.4,0,0,1024,1024,1024,1024,0,0,0,0,12.2,0,0,79,3.971,3.943,0,0,0,0,5.125,123.8,7.673531741616,3.608924,11,AutoTakeoff,
5600,2026-03-02 07:58:00,22.3091296631953,39.0983721096568,3.937008,,,8.001615741616,0.328084,0.223694,1.02991801196,1.4448163192,29,5,7.951,8.001615741616,3.937008,0.223694,1.02991801196,-0.223694,0,-1.11847,1.4, -5.1, -1.6,0,0,1024,1024,390,1024,0,0,-96,0,12.1,0,0,79,3.971,3.943,0,0,0,0,5.125,123.8,8.001615741616,3.937008,11,AutoTakeoff,
5800,2026-03-02 07:58:01,22.3091294217038,39.0983721310014,4.265092,,,8.329699741616,0,0.223694,1.11636486512,1.533218553,30,5,7.951,8.329699741616,4.265092,0.223694,1.11636486512,-0.223694,0,-0.894776,1.4, -4, -2,0,0,1024,1024,364,1024,0,0,-100,0,12.1,0,0,79,3.971,3.943,0,0,0,0,5.125,123.8,8.329699741616,4.265092,11,AutoTakeoff,
6000,2026-03-02 07:58:01,22.3091291658711,39.0983721287326,4.265092,,,8.329699741616,0,0.223694,1.20605646904,1.62656173184,30,5,7.951,8.329699741616,4.265092,0.223694,1.20605646904,-0.223694,0,0.447388,1.4, -4.1, -0.1,0,0,1024,1024,512,1024,0,0,-78,0,12.1,0,0,79,3.971,3.943,0,0,0,0,5.125,123.8,8.329699741616,4.265092,11,AutoTakeoff,
6200,2026-03-02 07:58:01,22.3091289096583,39.0983721738803,3.937008,,,8.001615741616,0,0.223694,1.30033140644,1.72127302096,28,5,7.951,8.329699741616,4.265092,0.223694,1.30033140644,-0.223694,0,1.342164,1.1, -3.5, -1.5,0,0,1024,1024,1024,1024,0,0,0,0,12.1,0,0,79,3.971,3.943,0,0,0,0,5.125,123.8,8.001615741616,3.937008,11,AutoTakeoff,
6400,2026-03-02 07:58:01,22.3091287430647,39.0983721904883,3.28084,,,7.345447741616,0,0,1.36060699892,1.78231304916,29,5,7.934,8.329699741616,4.265092,0.223694,1.36060699892,0,0,1.11847,1, -4.4, -0.7,0,0,1024,1024,1024,1024,0,0,0,0,12,0,0,79,3.987,3.964,0,0,0,0,6.215,123.98,7.345447741616,3.28084,11,AutoTakeoff,
6600,2026-03-02 07:58:01,22.3091287372937,39.0983722387103,3.28084,,,7.345447741616,0,0,1.36671264216,1.79872709168,29,5,7.934,8.329699741616,4.265092,0.223694,1.36671264216,0,0,-0.223694,1.3, -2, -0.7,0,0,1024,1024,1024,1024,0,0,0,0,12,0,0,79,3.987,3.964,0,0,0,0,6.215,123.98,7.345447741616,3.28084,11,AutoTakeoff,
6800,2026-03-02 07:58:02,22.3091287054984,39.0983723221023,3.28084,,,7.345447741616,0.328084,0,1.38532812832,1.82917000604,29,5,7.934,8.329699741616,4.265092,0.223694,1.38532812832,0,0,-0.671082,1.3, -1.6, -2.8,0,0,1024,1024,1024,1024,0,0,0,0,12,0,0,79,3.987,3.964,0,0,0,0,6.215,123.98,7.345447741616,3.28084,11,AutoTakeoff,
7000,2026-03-02 07:58:02,22.3091285998365,39.0983723028227,3.937008,,,8.001615741616,0.328084,0,1.4207513578,1.86826777632,29,5,7.934,8.329699741616,4.265092,0.223694,1.4207513578,0,0,-0.894776,1.3, -3.5, -1.7,0,0,1024,1024,1024,1024,0,0,0,0,11.9,0,0,79,3.987,3.964,0,0,0,0,6.215,123.98,8.001615741616,3.937008,11,AutoTakeoff,
7200,2026-03-02 07:58:02,22.3091285464395,39.0983722229913,4.265092,,,8.329699741616,0.328084,0,1.43286749992,1.90151908972,29,5,7.934,8.329699741616,4.265092,0.223694,1.43286749992,0,0,-1.11847,1.3, -2.3, -0.3,0,0,1024,1024,1024,1024,0,0,0,0,11.9,0,0,79,3.987,3.964,0,0,0,0,6.215,123.98,8.329699741616,4.265092,11,AutoTakeoff,
7400,2026-03-02 07:58:02,22.3091285298367,39.0983721733849,4.593176,,,8.657783741616,0,0,1.4348425656,1.9193242084,29,5,7.904,8.657783741616,4.593176,0.223694,1.4348425656,0,0,-0.894776,1.2, -2.6, -0.2,0,0,1024,1024,698,1024,0,0,-49,0,11.9,0,0,79,3.976,3.949,0,0,0,0,5.479,123.98,8.657783741616,4.593176,11,AutoTakeoff,
7600,2026-03-02 07:58:02,22.3091285160278,39.0983721607032,4.593176,,,8.657783741616,0,0,1.43878285444,1.925935101,29,5,7.904,8.657783741616,4.593176,0.223694,1.43878285444,0,0,-0.894776,1.3, -1.7, -0.5,0,0,1024,1024,977,1024,0,0,-7,0,11.9,0,0,79,3.976,3.949,0,0,0,0,5.479,123.98,8.657783741616,4.593176,11,AutoTakeoff,
7800,2026-03-02 07:58:03,22.3091284508426,39.0983721943405,4.593176,,,8.657783741616,0,0,1.4645177634,1.95229008872,29,5,7.904,8.657783741616,4.593176,0.223694,1.4645177634,0,0,0,1.3, -2.1, -1,0,0,1024,1024,847,1024,0,0,-27,0,11.9,0,0,79,3.976,3.949,0,0,0,0,5.479,123.98,8.657783741616,4.593176,11,AutoTakeoff,
8000,2026-03-02 07:58:03,22.3091284457656,39.098372261606,4.593176,,,8.657783741616,0,0,1.47165687124,1.97506896084,29,5,7.904,8.657783741616,4.593176,0.223694,1.47165687124,0,0,0,1.3, -2.3, -0.9,0,0,1024,1024,1024,1024,0,0,0,0,11.9,0,0,79,3.976,3.949,0,0,0,0,5.479,123.98,8.657783741616,4.593176,11,AutoTakeoff,
8200,2026-03-02 07:58:03,22.3091285236963,39.0983723256581,4.265092,,,8.329699741616,0,0,1.44957681804,2.01079074676,30,5,7.904,8.657783741616,4.593176,0.223694,1.47165687124,0,0,0.447388,1.1, -2.3, -0.5,0,0,1024,1024,1024,1024,0,0,0,0,11.9,0,0,79,3.976,3.949,0,0,0,0,5.479,123.98,8.329699741616,4.265092,11,AutoTakeoff,
8400,2026-03-02 07:58:03,22.3091286092676,39.0983723212226,4.265092,,,8.329699741616,0,0,1.41906500604,2.0420440286,30,5,7.924,8.657783741616,4.593176,0.223694,1.47165687124,0,0,-0.447388,1.2, -1, 0.3,0,0,1024,1024,686,1024,0,0,-51,0,11.8,0,0,79,3.987,3.972,0,0,0,0,5.375,123.98,8.329699741616,4.265092,11,AutoTakeoff,
8600,2026-03-02 07:58:03,22.3091286422184,39.0983723001465,4.265092,,,8.329699741616,0.328084,0,1.40559059616,2.05601384532,29,5,7.924,8.657783741616,4.593176,0.223694,1.47165687124,0,0,-0.447388,1.4, -1.1, 0.8,0,0,1024,1024,661,1024,0,0,-55,0,11.8,0,0,79,3.987,3.972,0,0,0,0,5.375,123.98,8.329699741616,4.265092,11,AutoTakeoff,
8800,2026-03-02 07:58:04,22.3091286208202,39.0983722998363,4.593176,,,8.657783741616,0,0,1.41309715808,2.06382224452,29,5,7.924,8.657783741616,4.593176,0.223694,1.47165687124,0,0,0,1.3, -3.5, 0.2,0,0,1024,1024,1000,1024,0,0,-4,0,11.8,0,0,79,3.987,3.972,0,0,0,0,5.375,123.98,8.657783741616,4.593176,11,AutoTakeoff,
9000,2026-03-02 07:58:04,22.3091286092741,39.0983722942988,4.593176,,,8.657783741616,0,0,1.41667655452,2.06843182472,29,5,7.924,8.657783741616,4.593176,0.223694,1.47165687124,0,0,0,1.2, -2, 0.9,0,0,1024,1024,952,1024,0,0,-11,0,11.8,0,0,79,3.987,3.972,0,0,0,0,5.375,123.98,8.657783741616,4.593176,11,AutoTakeoff,
9200,2026-03-02 07:58:04,22.3091286212978,39.0983723238246,4.593176,,,8.657783741616,0,0,1.41506894292,2.07932093268,30,5,7.924,8.657783741616,4.593176,0.223694,1.47165687124,0,0,-0.223694,1.2, -1.1, -0.3,0,0,1024,1024,953,1024,0,0,-11,0,11.8,0,0,79,3.987,3.972,0,0,0,0,5.375,123.98,8.657783741616,4.593176,11,AutoTakeoff,
9400,2026-03-02 07:58:04,22.3091286528747,39.0983722957434,4.593176,,,8.657783741616,0,0,1.40144689524,2.09423891216,30,5,7.867,8.657783741616,4.593176,0.223694,1.47165687124,0,0,0,1, -2.4, 0.2,0,0,1024,1024,680,1024,0,0,-52,0,11.8,0,0,79,3.968,3.913,0,0,0,0,5.876,123.98,8.657783741616,4.593176,11,AutoTakeoff,
9600,2026-03-02 07:58:04,22.30912868603,39.0983721981186,4.92126,,,8.985867741616,0,0,1.38141736704,2.12934061932,30,5,7.867,8.985867741616,4.92126,0.223694,1.47165687124,0,0,-0.447388,1.3, -1, 0.5,0,0,1024,1024,976,1024,0,0,-7,0,11.8,0,0,79,3.968,3.913,0,0,0,0,5.876,123.98,8.985867741616,4.92126,11,AutoTakeoff,
9800,2026-03-02 07:58:05,22.3091286472012,39.0983721138424,4.593176,,,8.657783741616,0,0,1.38860240664,2.1611221164,30,5,7.867,8.985867741616,4.92126,0.223694,1.47165687124,0,0,0.447388,1.3, -1.7, 0.9,0,0,1024,1024,1024,1024,0,0,0,0,11.8,0,0,79,3.968,3.913,0,0,0,0,5.876,123.98,8.657783741616,4.593176,11,AutoTakeoff,
10000,2026-03-02 07:58:05,22.3091286784246,39.098372063847,4.92126,,,8.985867741616,0,0,1.3738353458,2.1814797286,30,5,7.867,8.985867741616,4.92126,0.223694,1.47165687124,0,0,-0.223694,1.4, -1.8, 1,0,0,1024,1024,1024,1024,0,0,0,0,11.8,0,0,79,3.968,3.913,0,0,0,0,5.876,123.98,8.985867741616,4.92126,11,AutoTakeoff,
10200,2026-03-02 07:58:05,22.3091287495327,39.0983720568556,4.593176,,,8.657783741616,0,0,1.3479823266,2.20753287904,30,5,7.867,8.985867741616,4.92126,0.223694,1.47165687124,0,0,-0.447388,1.3, -0.2, -0.3,0,0,1024,1024,1019,1024,0,0,-1,0,11.8,0,0,79,3.968,3.913,0,0,0,0,5.876,123.98,8.657783741616,4.593176,11,AutoTakeoff,
10400,2026-03-02 07:58:05,22.3091287029091,39.0983720538831,5.249344,,,9.313951741616,0.328084,0,1.36439636912,2.224573562,30,5,7.945,9.313951741616,5.249344,0.223694,1.47165687124,0,0,-0.447388,1.2, -1.3, -0.4,0,0,1024,1024,962,1024,0,0,-9,0,11.8,0,0,79,3.977,3.951,0,0,0,0,6.4,124.16,9.313951741616,5.249344,11,AutoTakeoff,
10600,2026-03-02 07:58:05,22.3091286134612,39.0983720215654,5.249344,,,9.313951741616,0,0,1.39412077952,2.25898301192,30,5,7.945,9.313951741616,5.249344,0.223694,1.47165687124,0,0,-0.447388,1.3, -1.1, 0.2,0,0,1024,1024,1024,1024,0,0,0,0,11.8,0,0,79,3.977,3.951,0,0,0,0,6.4,124.16,9.313951741616,5.249344,6,P-GPS,"Land aircraft and remove gimbal protector to ensure flight safety (Code: 1612000B). Aircraft storage full. Back up file and clear space (Code: 10062)"
10800,2026-03-02 07:58:06,22.3091284874558,39.0983719911227,5.249344,,,9.313951741616,0,0,1.43728351056,2.30608931264,30,5,7.945,9.313951741616,5.249344,0.223694,1.47165687124,0,0,0.447388,1.2, -3.2, 0.6,0,0,1024,1024,966,1024,0,0,-9,0,11.7,0,0,79,3.977,3.951,0,0,0,0,6.4,124.16,9.313951741616,5.249344,6,P-GPS,"Home Point updated (Code: 3000001)"
11000,2026-03-02 07:58:06,22.3091284205519,39.0983720005032,5.249344,,,9.313951741616,0,0,1.461860283,2.33070217432,30,5,7.945,9.313951741616,5.249344,0.223694,1.47165687124,0,0,0,1.5, -2.1, -0.2,0,0,1024,1024,838,1024,0,0,-28,0,11.7,0,0,79,3.977,3.951,0,0,0,0,6.4,124.16,9.313951741616,5.249344,6,P-GPS,
11200,2026-03-02 07:58:06,22.3091283737783,39.098371992396,5.249344,,,9.313951741616,0,0,1.47814309192,2.34798563944,30,5,7.945,9.313951741616,5.249344,0.223694,1.47814309192,0,0,0,1.6, -2.4, -0.4,0,0,1024,1024,1024,1024,0,0,0,0,11.7,0,0,79,3.977,3.951,0,0,0,0,6.4,124.16,9.313951741616,5.249344,6,P-GPS,
11400,2026-03-02 07:58:06,22.30912833331,39.0983719504384,5.249344,,,9.313951741616,0,0,1.49021330228,2.36844495768,30,5,7.886,9.313951741616,5.249344,0.223694,1.49021330228,0,0,0.671082,1.7, -0.9, 1.2,0,0,1024,1024,1024,1024,0,0,0,0,11.7,0,0,78,3.972,3.942,0,0,0,0,5.389,124.16,9.313951741616,5.249344,6,P-GPS,
11600,2026-03-02 07:58:07,22.3091282996246,39.0983719417108,4.92126,,,8.985867741616,0,0,1.5018373184,2.3810860342,30,5,7.886,9.313951741616,5.249344,0.223694,1.5018373184,0,0,0.894776,1.3, -4.1, 0.6,0,0,1024,1024,1024,1024,0,0,0,0,11.8,0,0,78,3.972,3.942,0,0,0,0,5.389,124.16,8.985867741616,4.92126,6,P-GPS,
11800,2026-03-02 07:58:07,22.3091283826355,39.098371961495,4.593176,,,8.657783741616,0,0,1.47312012588,2.41209981472,29,5,7.886,9.313951741616,5.249344,0.223694,1.5018373184,0,0,0,1.6, -0.3, -0.3,0,0,1024,1024,1024,1024,0,0,0,0,11.8,0,0,78,3.972,3.942,0,0,0,0,5.389,124.16,8.657783741616,4.593176,6,P-GPS,
12000,2026-03-02 07:58:07,22.3091284450021,39.098372008416,4.593176,,,8.657783741616,0.328084,0,1.45358600452,2.43982291272,29,5,7.886,9.313951741616,5.249344,0.223694,1.5018373184,0,0,0,1.7, -0.4, -0.3,0,0,1024,1024,1024,1024,0,0,0,0,11.8,0,0,78,3.972,3.942,0,0,0,0,5.389,124.16,8.657783741616,4.593176,6,P-GPS,
12200,2026-03-02 07:58:07,22.3091284385522,39.098372102082,4.92126,,,8.985867741616,0,0,1.46211946936,2.47152566964,30,5,7.886,9.313951741616,5.249344,0.223694,1.5018373184,0,0,0,1.6, -1.7, -1.6,0,0,1024,1024,1024,1024,0,0,0,0,11.7,0,0,78,3.972,3.942,0,0,0,0,5.389,124.16,8.985867741616,4.92126,6,P-GPS,
12400,2026-03-02 07:58:07,22.3091284093163,39.0983721711625,4.593176,,,8.657783741616,0,0,1.477526294,2.49716543424,30,5,7.905,9.313951741616,5.249344,0.223694,1.5018373184,0,0,0,1.7, -1.4, -1.7,0,0,1024,1024,1024,1024,0,0,0,0,11.7,0,0,78,3.967,3.939,0,0,0,0,5.468,124.16,8.657783741616,4.593176,6,P-GPS,
12600,2026-03-02 07:58:07,22.309128371809,39.0983721844461,4.593176,,,8.657783741616,0,0,1.4918635648,2.51156832184,30,5,7.905,9.313951741616,5.249344,0.223694,1.5018373184,0,0,0,1.6, -1.7, -1.1,0,0,1024,1024,1024,1024,0,0,0,0,11.8,0,0,78,3.967,3.939,0,0,0,0,5.468,124.16,8.657783741616,4.593176,6,P-GPS,
12800,2026-03-02 07:58:08,22.309128348978,39.0983721575918,4.593176,,,8.657783741616,0,0,1.4980151398,2.52387803352,30,5,7.905,9.313951741616,5.249344,0.223694,1.5018373184,0,0,0,1.6, -1.8, -0.4,0,0,1024,1024,1024,1024,0,0,0,0,11.8,0,0,78,3.967,3.939,0,0,0,0,5.468,124.16,8.657783741616,4.593176,6,P-GPS,
13000,2026-03-02 07:58:08,22.3091283269887,39.0983720813301,4.593176,,,8.657783741616,0,0,1.50056763332,2.55083997664,30,5,7.905,9.313951741616,5.249344,0.223694,1.5018373184,0,0,0,1.7, -1.5, 0,0,0,1024,1024,1196,1024,0,0,26,0,11.8,0,0,78,3.967,3.939,0,0,0,0,5.468,124.16,8.657783741616,4.593176,6,P-GPS,
13200,2026-03-02 07:58:08,22.3091283164588,39.0983719816265,4.593176,,,8.657783741616,0,0,1.4980807566,2.58471464964,30,5,7.905,9.313951741616,5.249344,0.223694,1.5018373184,0,0,0,1.6, -1.4, 0.9,0,0,1024,1024,1024,1024,0,0,0,0,11.8,0,0,78,3.967,3.939,0,0,0,0,5.468,124.16,8.657783741616,4.593176,6,P-GPS,
13400,2026-03-02 07:58:08,22.3091283144241,39.0983719060038,4.593176,,,8.657783741616,0,0,1.49455713444,2.61024942736,29,5,7.904,9.313951741616,5.249344,0.223694,1.5018373184,0,0,0,1.7, -0.3, 0.6,0,0,1024,1024,1227,1024,0,0,31,0,11.8,0,0,78,3.967,3.939,0,0,0,0,5.375,124.34,8.657783741616,4.593176,6,P-GPS,
13600,2026-03-02 07:58:08,22.3091282779887,39.0983718563372,4.593176,,,8.657783741616,0,0,1.50514440512,2.631643785,29,5,7.904,9.313951741616,5.249344,0.223694,1.50514440512,0,0,0,1.7, -2, 0.7,0,0,1024,1024,1024,1024,0,0,0,0,11.7,0,0,78,3.967,3.939,0,0,0,0,5.375,124.34,8.657783741616,4.593176,6,P-GPS,
13800,2026-03-02 07:58:09,22.3091282667328,39.0983718131156,4.593176,,,8.657783741616,0,0,1.5071522792,2.6468012658,29,5,7.904,9.313951741616,5.249344,0.223694,1.5071522792,0,0,-0.447388,1.7, 0.2, 0.1,0,0,1024,1024,1024,1024,0,0,0,0,11.7,0,0,78,3.967,3.939,0,0,0,0,5.375,124.34,8.657783741616,4.593176,6,P-GPS,
14000,2026-03-02 07:58:09,22.3091282133026,39.0983717170651,4.593176,,,8.657783741616,0,0,1.52244755528,2.68463263184,30,5,7.904,9.313951741616,5.249344,0.223694,1.52244755528,0,0,0,1.6, -2.1, 0.7,0,0,1024,1024,1225,1024,0,0,30,0,11.8,0,0,78,3.967,3.939,0,0,0,0,5.375,124.34,8.657783741616,4.593176,6,P-GPS,
14200,2026-03-02 07:58:09,22.3091281818339,39.0983715559484,4.593176,,,8.657783741616,0,0.223694,1.52868115128,2.74021334228,29,5,7.904,9.313951741616,5.249344,0.223694,1.52868115128,0,-0.223694,0,1.8, -1, 2.8,0,0,1024,1024,1024,1024,0,0,0,0,11.8,0,0,78,3.967,3.939,0,0,0,0,5.375,124.34,8.657783741616,4.593176,6,P-GPS,
14400,2026-03-02 07:58:09,22.3091282081185,39.0983714611156,4.593176,,,8.657783741616,0,0,1.5169619908,2.77362869768,29,5,7.904,9.313951741616,5.249344,0.223694,1.52868115128,0,0,-0.447388,1.6, -1, 1.4,0,0,1024,1024,1024,1024,0,0,0,0,11.8,0,0,78,3.959,3.922,0,0,0,0,5.375,124.34,8.657783741616,4.593176,6,P-GPS,
14600,2026-03-02 07:58:09,22.3091282368597,39.0983713785201,4.593176,,,8.657783741616,0,0,1.5051509668,2.80341544404,30,5,7.904,9.313951741616,5.249344,0.223694,1.52868115128,0,0,0,1.7, 0.2, 1.5,0,0,1024,1024,1024,1024,0,0,0,0,11.8,0,0,78,3.959,3.922,0,0,0,0,5.375,124.34,8.657783741616,4.593176,6,P-GPS,
14800,2026-03-02 07:58:10,22.3091281851601,39.0983712359468,4.593176,,,8.657783741616,0,0.223694,1.52291015372,2.85510507824,30,5,7.904,9.313951741616,5.249344,0.223694,1.52868115128,0,-0.223694,0,1.7, -1, 1.7,0,0,1024,1024,563,1024,0,0,-70,0,11.8,0,0,78,3.959,3.922,0,0,0,0,5.375,124.34,8.657783741616,4.593176,6,P-GPS,
15000,2026-03-02 07:58:10,22.3091281155394,39.0983710440634,4.593176,,,8.657783741616,0,0.223694,1.5492290522,2.92467529044,30,5,7.904,9.313951741616,5.249344,0.223694,1.5492290522,0,-0.223694,0,1.7, -1.3, 3.1,0,0,1024,1024,1024,1024,0,0,0,0,11.8,0,0,78,3.959,3.922,0,0,0,0,5.375,124.34,8.657783741616,4.593176,6,P-GPS,
15200,2026-03-02 07:58:10,22.3091280516597,39.098370876497,4.265092,,,8.329699741616,0,0,1.57548889556,2.98584983308,30,5,7.904,9.313951741616,5.249344,0.223694,1.57548889556,0,0,0.447388,1.6, -3, 2.1,0,0,1024,1024,1024,1024,0,0,0,0,11.7,0,0,78,3.959,3.922,0,0,0,0,5.375,124.34,8.329699741616,4.265092,6,P-GPS,
15400,2026-03-02 07:58:10,22.3091280275714,39.0983707536015,4.265092,,,8.329699741616,0,0,1.58770018204,3.02825140924,30,5,7.932,9.313951741616,5.249344,0.223694,1.58770018204,0,0,0,1.6, -1.6, 2.3,0,0,1024,1024,1024,1024,0,0,0,0,11.7,0,0,78,3.966,3.943,0,0,0,0,5.456,124.52,8.329699741616,4.265092,6,P-GPS,
15600,2026-03-02 07:58:10,22.3091279921213,39.0983706567916,4.265092,,,8.329699741616,0,0,1.60401579936,3.06339576732,30,5,7.932,9.313951741616,5.249344,0.223694,1.60401579936,0,0,0,1.5, -2.8, 1.5,0,0,1024,1024,1121,1024,0,0,15,0,11.7,0,0,78,3.966,3.943,0,0,0,0,5.456,124.52,8.329699741616,4.265092,6,P-GPS,
15800,2026-03-02 07:58:11,22.3091280255025,39.0983705618477,4.265092,,,8.329699741616,0,0,1.59596133716,3.09768054532,29,5,7.932,9.313951741616,5.249344,0.223694,1.60401579936,0,0,0,1.5, -2.2, 1.5,0,0,1024,1024,1024,1024,0,0,0,0,11.8,0,0,78,3.966,3.943,0,0,0,0,5.456,124.52,8.329699741616,4.265092,6,P-GPS,
16000,2026-03-02 07:58:11,22.3091281226018,39.0983704871371,4.265092,,,8.329699741616,0,0,1.56457682172,3.14116479868,29,5,7.932,9.313951741616,5.249344,0.223694,1.60401579936,0,0,0,1.6, -0.3, 2.9,0,0,1024,1024,1024,1024,0,0,0,0,11.8,0,0,78,3.966,3.943,0,0,0,0,5.456,124.52,8.329699741616,4.265092,6,P-GPS,
16200,2026-03-02 07:58:11,22.3091281857073,39.098370447828,4.265092,,,8.329699741616,0,0,1.54397642736,3.16773960268,29,5,7.932,9.313951741616,5.249344,0.223694,1.60401579936,0,0,0,1.6, -0.5, 0.6,0,0,1024,1024,1024,1024,0,0,0,0,11.7,0,0,78,3.966,3.943,0,0,0,0,5.456,124.52,8.329699741616,4.265092,6,P-GPS,
16400,2026-03-02 07:58:11,22.3091282091498,39.0983703416515,4.265092,,,8.329699741616,0,0,1.541912779,3.20458343588,29,5,7.901,9.313951741616,5.249344,0.223694,1.60401579936,0,0,0,1.5, -1.4, 2.3,0,0,1024,1024,1024,1024,0,0,0,0,11.8,0,0,78,3.964,3.933,0,0,0,0,5.473,124.52,8.329699741616,4.265092,6,P-GPS,
16600,2026-03-02 07:58:11,22.3091282326587,39.0983702318544,4.265092,,,8.329699741616,0,0,1.54096461624,3.24262477568,29,5,7.901,9.313951741616,5.249344,0.223694,1.60401579936,0,0,0,1.6, -1.2, 2.1,0,0,1024,1024,1024,1024,0,0,0,0,11.7,0,0,78,3.964,3.933,0,0,0,0,5.473,124.52,8.329699741616,4.265092,6,P-GPS,
16800,2026-03-02 07:58:12,22.3091282429133,39.0983701592829,4.265092,,,8.329699741616,0,0,1.54272970816,3.2674049602,29,5,7.901,9.313951741616,5.249344,0.223694,1.60401579936,0,0,0,1.6, -0.7, 1.4,0,0,1024,1024,1024,1024,0,0,0,0,11.8,0,0,78,3.964,3.933,0,0,0,0,5.473,124.52,8.329699741616,4.265092,6,P-GPS,
17000,2026-03-02 07:58:12,22.3091282299301,39.098370076766,4.265092,,,8.329699741616,0,0,1.55393049592,3.2956693968,29,5,7.901,9.313951741616,5.249344,0.223694,1.60401579936,0,0,0,1.7, -1.1, 2.2,0,0,1024,1024,1024,1024,0,0,0,0,11.8,0,0,78,3.964,3.933,0,0,0,0,5.473,124.52,8.329699741616,4.265092,6,P-GPS,
17200,2026-03-02 07:58:12,22.309128222873,39.0983700071578,4.265092,,,8.329699741616,0,0,1.56234256968,3.3192914448,29,5,7.901,9.313951741616,5.249344,0.223694,1.60401579936,0,0,0,1.6, -1.4, 2.1,0,0,1024,1024,1024,1024,0,0,0,0,11.8,0,0,78,3.964,3.933,0,0,0,0,5.473,124.52,8.329699741616,4.265092,6,P-GPS,
17400,2026-03-02 07:58:12,22.3091282396622,39.0983699569958,4.265092,,,8.329699741616,0,0,1.5609088426,3.3373032564,29,5,7.899,9.313951741616,5.249344,0.223694,1.60401579936,0,0,0,1.5, -1.5, 2,0,0,1024,1024,1024,1024,0,0,0,0,11.7,0,0,78,3.962,3.931,0,0,0,0,5.712,124.7,8.329699741616,4.265092,6,P-GPS,
17600,2026-03-02 07:58:12,22.3091282917784,39.0983699142048,3.937008,,,8.001615741616,0,0,1.54661750356,3.3611877716,29,5,7.899,9.313951741616,5.249344,0.223694,1.60401579936,0,0,0,1.6, -0.4, 2.3,0,0,1024,1024,1024,1024,0,0,0,0,11.8,0,0,78,3.962,3.931,0,0,0,0,5.712,124.7,8.001615741616,3.937008,6,P-GPS,
17800,2026-03-02 07:58:13,22.3091283565844,39.0983698852623,3.937008,,,8.001615741616,0,0,1.52676514072,3.3867455152,29,5,7.899,9.313951741616,5.249344,0.223694,1.60401579936,0,0,0,1.5, -1, 1.7,0,0,1024,1024,1024,1024,0,0,0,0,11.7,0,0,78,3.962,3.931,0,0,0,0,5.712,124.7,8.001615741616,3.937008,6,P-GPS,
18000,2026-03-02 07:58:13,22.3091284658263,39.0983698391747,3.937008,,,8.001615741616,0,0,1.49341868296,3.4295604772,29,5,7.899,9.313951741616,5.249344,0.223694,1.60401579936,0,0,0,1.6, -0.5, 3.2,0,0,1024,1024,1024,1024,0,0,0,0,11.8,0,0,78,3.962,3.931,0,0,0,0,5.712,124.7,8.001615741616,3.937008,6,P-GPS,
18200,2026-03-02 07:58:13,22.3091285673237,39.0983698358365,3.937008,,,8.001615741616,0,0,1.4585958472,3.4666011608,29,5,7.899,9.313951741616,5.249344,0.223694,1.60401579936,0,0,0,1.6, -1.2, 2.4,0,0,1024,1024,1024,1024,0,0,0,0,11.7,0,0,78,3.962,3.931,0,0,0,0,5.712,124.7,8.001615741616,3.937008,6,P-GPS,
18400,2026-03-02 07:58:13,22.3091286365492,39.0983698553336,3.937008,,,8.001615741616,0,0,1.43255910096,3.4926838388,29,5,7.892,9.313951741616,5.249344,0.223694,1.60401579936,0,0,0,1.7, -0.7, 1.1,0,0,1024,1024,1024,1024,0,0,0,0,11.8,0,0,78,3.96,3.93,0,0,0,0,5.729,124.7,8.001615741616,3.937008,6,P-GPS,
18600,2026-03-02 07:58:13,22.3091286958242,39.0983698461522,3.937008,,,8.001615741616,0,0,1.4130741922,3.5145342332,29,5,7.892,9.313951741616,5.249344,0.223694,1.60401579936,0,0,0,1.7, -0.9, 2.3,0,0,1024,1024,1024,1024,0,0,0,0,11.7,0,0,78,3.96,3.93,0,0,0,0,5.729,124.7,8.001615741616,3.937008,6,P-GPS,
18800,2026-03-02 07:58:14,22.3091287665703,39.098369858959,3.937008,,,8.001615741616,0,0,1.38726382392,3.5407153364,29,5,7.892,9.313951741616,5.249344,0.223694,1.60401579936,0,0,0,1.8, -0.7, 1.8,0,0,1024,1024,1024,1024,0,0,0,0,11.8,0,0,78,3.96,3.93,0,0,0,0,5.729,124.7,8.001615741616,3.937008,6,P-GPS,
19000,2026-03-02 07:58:14,22.3091288163274,39.0983698890173,3.937008,,,8.001615741616,0,0,1.36679138232,3.561515862,29,5,7.892,9.313951741616,5.249344,0.223694,1.60401579936,0,0,0,1.7, -1.4, 1.5,0,0,1024,1024,1024,1024,0,0,0,0,11.8,0,0,78,3.96,3.93,0,0,0,0,5.729,124.7,8.001615741616,3.937008,6,P-GPS,
19200,2026-03-02 07:58:14,22.3091288762449,39.0983699193534,4.265092,,,8.329699741616,0,0,1.34279203772,3.5856628444,29,5,7.892,9.313951741616,5.249344,0.223694,1.60401579936,0,0,0,1.7, -1, 1.6,0,0,1024,1024,1024,1024,0,0,0,0,11.7,0,0,78,3.96,3.93,0,0,0,0,5.729,124.7,8.329699741616,4.265092,6,P-GPS,
19400,2026-03-02 07:58:14,22.3091289352425,39.0983699796645,4.265092,,,8.329699741616,0,0,1.31590227308,3.6152888296,29,5,7.892,9.313951741616,5.249344,0.223694,1.60401579936,0,0,0,1.7, -0.6, 1,0,0,1024,1024,1024,1024,0,0,0,0,11.8,0,0,78,3.959,3.928,0,0,0,0,5.561,124.7,8.329699741616,4.265092,6,P-GPS,
19600,2026-03-02 07:58:15,22.3091289533777,39.0983700591857,4.265092,,,8.329699741616,0,0,1.3013943986,3.6429135024,29,5,7.892,9.313951741616,5.249344,0.223694,1.60401579936,0,0,0,1.6, -0.9, 1,0,0,1024,1024,1024,1024,0,0,0,0,11.8,0,0,78,3.959,3.928,0,0,0,0,5.561,124.7,8.329699741616,4.265092,6,P-GPS,
19800,2026-03-02 07:58:15,22.3091289335259,39.0983701392579,4.265092,,,8.329699741616,0,0,1.30057746944,3.6708990676,29,5,7.892,9.313951741616,5.249344,0.223694,1.60401579936,0,0,0,1.6, -0.9, 0.8,0,0,1024,1024,1024,1024,0,0,0,0,11.8,0,0,78,3.959,3.928,0,0,0,0,5.561,124.7,8.329699741616,4.265092,6,P-GPS,
20000,2026-03-02 07:58:15,22.3091288866848,39.0983702133342,4.265092,,,8.329699741616,0,0,1.3104003044,3.7011812208,29,5,7.892,9.313951741616,5.249344,0.223694,1.60401579936,0,0,0,1.6, -1.4, 0.4,0,0,1024,1024,1024,1024,0,0,0,0,11.8,0,0,78,3.959,3.928,0,0,0,0,5.561,124.7,8.329699741616,4.265092,6,P-GPS,
20200,2026-03-02 07:58:15,22.3091288492118,39.0983702588893,4.265092,,,8.329699741616,0,0,1.3198163152,3.7217520876,29,5,7.892,9.313951741616,5.249344,0.223694,1.60401579936,0,0,0,1.6, -1.4, 0.7,0,0,1024,1024,1024,1024,0,0,0,0,11.8,0,0,78,3.959,3.928,0,0,0,0,5.561,124.7,8.329699741616,4.265092,6,P-GPS,
20400,2026-03-02 07:58:15,22.3091288204053,39.0983702805255,4.265092,,,8.329699741616,0,0,1.32828416324,3.7345473636,29,5,7.888,9.313951741616,5.249344,0.223694,1.60401579936,0,0,0,1.3, -1, 1,0,0,1024,1024,1024,1024,0,0,0,0,11.7,0,0,78,3.958,3.928,0,0,0,0,5.626,124.88,8.329699741616,4.265092,6,P-GPS,
20600,2026-03-02 07:58:15,22.3091287886732,39.098370273974,4.265092,,,8.329699741616,0,0,1.34005581716,3.7463583876,29,5,7.888,9.313951741616,5.249344,0.223694,1.60401579936,0,0,0,1.5, -0.9, 1.3,0,0,1024,1000,1024,1024,0,-4,0,0,11.7,0,0,78,3.958,3.928,0,0,0,0,5.626,124.88,8.329699741616,4.265092,6,P-GPS,
20800,2026-03-02 07:58:16,22.3091287466542,39.09837026107,4.265092,,,8.329699741616,0,0,1.35598101452,3.76230327,29,5,7.888,9.313951741616,5.249344,0.223694,1.60401579936,0,0,0,1.6, -1.3, 2.8,0,0,1024,1001,1024,1024,0,-3,0,0,11.7,0,0,78,3.958,3.928,0,0,0,0,5.626,124.88,8.329699741616,4.265092,6,P-GPS,
21000,2026-03-02 07:58:16,22.3091287210786,39.0983703267242,4.265092,,,8.329699741616,0,0,1.36004925612,3.7863190188,29,5,7.888,9.313951741616,5.249344,0.223694,1.60401579936,0,0,0,1.6, -1.5, 2.5,0,0,1024,1024,1024,1024,0,0,0,0,11.8,0,0,78,3.958,3.928,0,0,0,0,5.626,124.88,8.329699741616,4.265092,6,P-GPS,
21200,2026-03-02 07:58:16,22.3091287093514,39.0983704996105,4.265092,,,8.329699741616,0,0,1.35274282544,3.8448492044,29,5,7.888,9.313951741616,5.249344,0.223694,1.60401579936,0,0,0,1.7, -1.1, 1.4,0,0,1024,956,1024,1024,0,-10,0,0,11.8,0,0,78,3.958,3.928,0,0,0,0,5.626,124.88,8.329699741616,4.265092,6,P-GPS,
21400,2026-03-02 07:58:16,22.3091286854635,39.0983707412161,4.265092,,,8.329699741616,0,0,1.34945214292,3.9268702044,29,5,7.888,9.313951741616,5.249344,0.223694,1.60401579936,0,0,0,1.6, -1.5, 0.2,0,0,1024,870,1024,1024,0,-23,0,0,11.8,0,0,78,3.958,3.928,0,0,0,0,5.626,124.88,8.329699741616,4.265092,6,P-GPS,
21600,2026-03-02 07:58:16,22.309128663306,39.0983710003325,4.265092,,,8.329699741616,0,0,1.35019033192,4.0146982912,29,5,7.887,9.313951741616,5.249344,0.223694,1.60401579936,0,0,0,1.7, -1.1, -3.4,0,0,1024,1024,1024,1024,0,0,0,0,11.8,0,0,78,3.957,3.927,0,0,0,0,5.601,124.88,8.329699741616,4.265092,6,P-GPS,
21800,2026-03-02 07:58:17,22.3091286259015,39.0983710517446,4.265092,,,8.329699741616,0,0.223694,1.36305122472,4.0367783444,29,5,7.887,9.313951741616,5.249344,0.223694,1.60401579936,0,-0.223694,0,1.7, -1.7, -5.2,0,0,1024,1024,1024,1024,0,0,0,0,11.8,0,0,78,3.957,3.927,0,0,0,0,5.601,124.88,8.329699741616,4.265092,6,P-GPS,
22000,2026-03-02 07:58:17,22.3091286323664,39.0983707869425,3.937008,,,8.001615741616,0,0.447388,1.36701447944,4.1261812344,29,5,7.887,9.313951741616,5.249344,0.447388,1.60401579936,0,-0.447388,0,1.7, -0.6, 1.2,0,0,1024,1019,1024,1024,0,-1,0,0,11.8,0,0,78,3.957,3.927,0,0,0,0,5.601,124.88,8.001615741616,3.937008,6,P-GPS,
22200,2026-03-02 07:58:17,22.3091286483802,39.0983705760805,3.937008,,,8.001615741616,0,0.223694,1.37041342968,4.1976051212,29,5,7.887,9.313951741616,5.249344,0.447388,1.60401579936,0,-0.223694,0,1.6, -1, 1.5,0,0,1024,1024,1024,1024,0,0,0,0,11.8,0,0,78,3.957,3.927,0,0,0,0,5.601,124.88,8.001615741616,3.937008,6,P-GPS,
22400,2026-03-02 07:58:17,22.3091286585417,39.0983705054536,3.937008,,,8.001615741616,0,0,1.37065621184,4.2217192952,29,5,7.887,9.313951741616,5.249344,0.447388,1.60401579936,0,0,0,1.8, -0.7, -0.2,0,0,1024,839,1024,1024,0,-28,0,0,11.8,0,0,78,3.957,3.927,0,0,0,0,5.601,124.88,8.001615741616,3.937008,6,P-GPS,
22600,2026-03-02 07:58:17,22.3091286757764,39.0983705085558,3.937008,,,8.001615741616,0,0,1.36428153972,4.2280841248,30,5,7.884,9.313951741616,5.249344,0.447388,1.60401579936,0,0,0,1.8, -0.5, -0.5,0,0,1024,606,1024,1024,0,-63,0,0,11.8,0,0,78,3.956,3.925,0,0,0,0,5.561,125.06,8.001615741616,3.937008,6,P-GPS,
22800,2026-03-02 07:58:18,22.3091287083405,39.0983705213208,3.937008,,,8.001615741616,0,0,1.3518373136,4.2407481672,30,5,7.884,9.313951741616,5.249344,0.447388,1.60401579936,0,0,0,1.9, -0.7, -5.2,0,0,1024,1024,1024,1024,0,0,0,0,11.7,0,0,78,3.956,3.925,0,0,0,0,5.561,125.06,8.001615741616,3.937008,6,P-GPS,
23000,2026-03-02 07:58:18,22.3091287461177,39.0983702839425,3.937008,,,8.001615741616,0,0.447388,1.35437668376,4.3220473824,29,5,7.884,9.313951741616,5.249344,0.447388,1.60401579936,0,-0.447388,0,1.8, -0.6, -7.4,0,0,1024,1024,1024,1024,0,0,0,0,11.8,0,0,78,3.956,3.925,0,0,0,0,5.561,125.06,8.001615741616,3.937008,6,P-GPS,
23200,2026-03-02 07:58:18,22.309128789215,39.0983697015556,3.937008,,,8.001615741616,0,0.671082,1.39786093712,4.5192586748,29,5,7.884,9.313951741616,5.249344,0.671082,1.60401579936,0,-0.671082,0,1.8, -0.8, 1,0,0,1225,1024,1024,1024,30,0,0,0,11.8,0,0,78,3.956,3.925,0,0,0,0,5.561,125.06,8.001615741616,3.937008,6,P-GPS,
23400,2026-03-02 07:58:18,22.3091288234423,39.0983692248775,3.937008,,,8.001615741616,0,0.447388,1.4528707814,4.6806431944,29,5,7.884,9.313951741616,5.249344,0.671082,1.60401579936,0,-0.447388,0,1.7, -1.7, 0.9,0,0,1024,1024,1232,1024,0,0,32,0,11.7,0,0,78,3.956,3.925,0,0,0,0,5.561,125.06,8.001615741616,3.937008,6,P-GPS,
23600,2026-03-02 07:58:18,22.3091288972383,39.0983689355592,3.937008,,,8.001615741616,0,0.223694,1.47721789504,4.7819227252,29,5,7.88,9.313951741616,5.249344,0.671082,1.60401579936,0,-0.223694,0,1.9, -1.5, 0,0,0,1024,1024,1024,1024,0,0,0,0,11.7,0,0,78,3.956,3.925,0,0,0,0,5.598,125.06,8.001615741616,3.937008,6,P-GPS,
23800,2026-03-02 07:58:19,22.3091290362451,39.0983688093716,3.937008,,,8.001615741616,0,0.223694,1.45729335372,4.8481628848,29,5,7.88,9.313951741616,5.249344,0.671082,1.60401579936,0,-0.223694,-0.223694,1.8, 0.6, -0.1,0,0,1024,1024,1327,1024,0,0,46,0,11.7,0,0,78,3.956,3.925,0,0,0,0,5.598,125.06,8.001615741616,3.937008,6,P-GPS,
24000,2026-03-02 07:58:19,22.3091291371524,39.0983688057417,3.937008,,,8.001615741616,0,0,1.42750660736,4.885006718,29,5,7.88,9.313951741616,5.249344,0.671082,1.60401579936,0,0,0,1.7, -0.8, 0.1,0,0,1024,1024,1024,1024,0,0,0,0,11.8,0,0,78,3.956,3.925,0,0,0,0,5.598,125.06,8.001615741616,3.937008,6,P-GPS,
24200,2026-03-02 07:58:19,22.3091292393812,39.09836892003,4.265092,,,8.329699741616,0,0,1.37494426972,4.938648452,30,5,7.88,9.313951741616,5.249344,0.671082,1.60401579936,0,0,-0.447388,1.7, 1.1, -0.3,0,0,1024,1024,1024,1024,0,0,0,0,11.8,0,0,78,3.956,3.925,0,0,0,0,5.598,125.06,8.329699741616,4.265092,6,P-GPS,
24400,2026-03-02 07:58:19,22.3091292833406,39.0983690916569,4.265092,,,8.329699741616,0,0,1.3297408562,4.9987534408,30,5,7.88,9.313951741616,5.249344,0.671082,1.60401579936,0,0,0,1.7, -0.4, -1.1,0,0,1024,1024,1024,1024,0,0,0,0,11.7,0,0,78,3.956,3.925,0,0,0,0,5.598,125.06,8.329699741616,4.265092,6,P-GPS,
24600,2026-03-02 07:58:19,22.3091292638346,39.0983692429949,4.265092,,,8.329699741616,0,0,1.3091863936,5.0503282456,30,5,7.88,9.313951741616,5.249344,0.671082,1.60401579936,0,0,0,1.7, -0.8, -1.5,0,0,1024,1024,1024,1024,0,0,0,0,11.7,0,0,78,3.956,3.925,0,0,0,0,5.598,125.06,8.329699741616,4.265092,6,P-GPS,
24800,2026-03-02 07:58:20,22.30912922315,39.0983693545375,4.265092,,,8.329699741616,0,0,1.30355647216,5.0908138112,30,5,7.843,9.313951741616,5.249344,0.671082,1.60401579936,0,0,0,1.7, -1.2, -0.5,0,0,1024,1024,1024,1024,0,0,0,0,11.7,0,0,78,3.952,3.917,0,0,0,0,5.746,125.24,8.329699741616,4.265092,6,P-GPS,
25000,2026-03-02 07:58:20,22.309129166323,39.0983694585981,4.265092,,,8.329699741616,0,0,1.3055610654,5.1315946524,29,5,7.843,9.313951741616,5.249344,0.671082,1.60401579936,0,0,0,1.8, -1.5, -0.8,0,0,1024,812,1024,1024,0,-32,0,0,11.7,0,0,78,3.952,3.917,0,0,0,0,5.746,125.24,8.329699741616,4.265092,6,P-GPS,
25200,2026-03-02 07:58:20,22.3091291278894,39.0983695646124,4.265092,,,8.329699741616,0,0,1.3024770758,5.1700460972,29,5,7.843,9.313951741616,5.249344,0.671082,1.60401579936,0,0,0,1.7, -1.9, -1.1,0,0,1024,1024,1024,1024,0,0,0,0,11.8,0,0,78,3.952,3.917,0,0,0,0,5.746,125.24,8.329699741616,4.265092,6,P-GPS,
25400,2026-03-02 07:58:20,22.3091291332309,39.0983696356884,4.265092,,,8.329699741616,0,0,1.290682456,5.1940946544,29,5,7.843,9.313951741616,5.249344,0.671082,1.60401579936,0,0,0,1.7, -1.4, -1.7,0,0,1024,817,1024,1024,0,-31,0,0,11.8,0,0,78,3.952,3.917,0,0,0,0,5.746,125.24,8.329699741616,4.265092,6,P-GPS,
25600,2026-03-02 07:58:20,22.3091291506476,39.0983696547365,4.265092,,,8.329699741616,0,0,1.28225397804,5.2031497728,29,5,7.843,9.313951741616,5.249344,0.671082,1.60401579936,0,0,0,1.7, -1.1, -0.1,0,0,1024,1024,1024,1024,0,0,0,0,11.8,0,0,78,3.952,3.917,0,0,0,0,5.746,125.24,8.329699741616,4.265092,6,P-GPS,
25800,2026-03-02 07:58:21,22.3091291792088,39.0983696845448,4.265092,,,8.329699741616,0,0,1.26864505372,5.2176182772,29,5,7.877,9.313951741616,5.249344,0.671082,1.60401579936,0,0,0,1.8, -1, -1,0,0,1024,1024,1024,1024,0,0,0,0,11.8,0,0,78,3.953,3.924,0,0,0,0,5.567,125.24,8.329699741616,4.265092,6,P-GPS,
26000,2026-03-02 07:58:21,22.3091292161508,39.0983697159643,4.265092,,,8.329699741616,0,0,1.2520341608,5.2347770704,29,5,7.877,9.313951741616,5.249344,0.671082,1.60401579936,0,0,0,1.7, -0.6, -0.5,0,0,1024,1024,1024,1024,0,0,0,0,11.8,0,0,78,3.953,3.924,0,0,0,0,5.567,125.24,8.329699741616,4.265092,6,P-GPS,
26200,2026-03-02 07:58:21,22.3091292392474,39.0983698199276,4.265092,,,8.329699741616,0,0,1.23056762468,5.2708663104,29,5,7.877,9.313951741616,5.249344,0.671082,1.60401579936,0,0,0,1.7, -0.8, -0.8,0,0,1024,1024,1024,1024,0,0,0,0,11.8,0,0,78,3.953,3.924,0,0,0,0,5.567,125.24,8.329699741616,4.265092,6,P-GPS,
26400,2026-03-02 07:58:21,22.3091292564434,39.0983699856188,4.265092,,,8.329699741616,0,0,1.20452431676,5.3271327164,29,5,7.877,9.313951741616,5.249344,0.671082,1.60401579936,0,0,0,1.7, -0.5, -1.7,0,0,1024,1024,1024,1024,0,0,0,0,11.8,0,0,78,3.953,3.924,0,0,0,0,5.567,125.24,8.329699741616,4.265092,6,P-GPS,
26600,2026-03-02 07:58:21,22.3091292590414,39.0983701273679,4.265092,,,8.329699741616,0,0,1.1881233976,5.375000172,29,5,7.877,9.313951741616,5.249344,0.671082,1.60401579936,0,0,0,1.7, -0.4, -2.2,0,0,1024,1024,1024,1024,0,0,0,0,11.8,0,0,78,3.953,3.924,0,0,0,0,5.567,125.24,8.329699741616,4.265092,6,P-GPS,
26800,2026-03-02 07:58:22,22.3091292359748,39.0983701921285,4.265092,,,8.329699741616,0,0,1.18967195408,5.3984253696,29,5,7.878,9.313951741616,5.249344,0.671082,1.60401579936,0,0,0,1.6, -1, -0.5,0,0,1024,1024,1024,1024,0,0,0,0,11.8,0,0,77,3.953,3.923,0,0,0,0,5.473,125.24,8.329699741616,4.265092,6,P-GPS,
27000,2026-03-02 07:58:22,22.3091292125269,39.0983702810626,4.265092,,,8.329699741616,0,0,1.1896489882,5.429626158,29,5,7.878,9.313951741616,5.249344,0.671082,1.60401579936,0,0,0,1.6, -1.2, -0.9,0,0,1024,1024,1024,1024,0,0,0,0,11.8,0,0,77,3.953,3.923,0,0,0,0,5.473,125.24,8.329699741616,4.265092,6,P-GPS,
27200,2026-03-02 07:58:22,22.309129210473,39.0983703804514,3.937008,,,8.001615741616,0,0,1.18202759688,5.4631891512,29,5,7.878,9.313951741616,5.249344,0.671082,1.60401579936,0,0,0,1.7, -0.3, -1.7,0,0,1024,1024,1024,1024,0,0,0,0,11.8,0,0,77,3.953,3.923,0,0,0,0,5.473,125.24,8.001615741616,3.937008,6,P-GPS,
27400,2026-03-02 07:58:22,22.3091291918655,39.0983704196031,3.937008,,,8.001615741616,0,0,1.18560043164,5.4780513564,29,5,7.878,9.313951741616,5.249344,0.671082,1.60401579936,0,0,0,1.6, -0.5, -0.8,0,0,1024,1024,1024,1024,0,0,0,0,11.8,0,0,77,3.953,3.923,0,0,0,0,5.473,125.24,8.001615741616,3.937008,6,P-GPS,
27600,2026-03-02 07:58:22,22.3091291531834,39.0983704298448,3.937008,,,8.001615741616,0,0,1.19859911972,5.4925854776,29,5,7.878,9.313951741616,5.249344,0.671082,1.60401579936,0,0,0,1.9, -1, 0.3,0,0,1024,1024,1024,1024,0,0,0,0,11.8,0,0,77,3.953,3.923,0,0,0,0,5.473,125.24,8.001615741616,3.937008,6,P-GPS,
27800,2026-03-02 07:58:23,22.3091291056056,39.0983705045786,4.265092,,,8.329699741616,0,0,1.2103674928,5.5231957148,29,5,7.87,9.313951741616,5.249344,0.671082,1.60401579936,0,0,0,1.8, -1.1, 0,0,0,1024,1024,1024,1024,0,0,0,0,11.8,0,0,77,3.949,3.918,0,0,0,0,5.646,125.42,8.329699741616,4.265092,6,P-GPS,
28000,2026-03-02 07:58:23,22.3091290663945,39.0983706733302,4.265092,,,8.329699741616,0,0,1.21468835908,5.5819227508,29,5,7.87,9.313951741616,5.249344,0.671082,1.60401579936,0,0,0,1.7, -1.6, -2.3,0,0,1024,1024,1024,1024,0,0,0,0,11.8,0,0,77,3.949,3.918,0,0,0,0,5.646,125.42,8.329699741616,4.265092,6,P-GPS,
28200,2026-03-02 07:58:23,22.3091290477827,39.0983708267471,4.265092,,,8.329699741616,0,0,1.21487536696,5.6341537236,28,5,7.87,9.313951741616,5.249344,0.671082,1.60401579936,0,0,0,1.6, -1, -2,0,0,1024,622,1024,1024,0,-61,0,0,11.8,0,0,77,3.949,3.918,0,0,0,0,5.646,125.42,8.329699741616,4.265092,6,P-GPS,
28400,2026-03-02 07:58:23,22.3091290255161,39.0983709527077,4.265092,,,8.329699741616,0,0,1.21924872668,5.6774608116,28,5,7.87,9.313951741616,5.249344,0.671082,1.60401579936,0,0,0,1.6, -0.8, -2.9,0,0,1024,1024,1024,1024,0,0,0,0,11.8,0,0,77,3.949,3.918,0,0,0,0,5.646,125.42,8.329699741616,4.265092,6,P-GPS,
28600,2026-03-02 07:58:23,22.309128982785,39.0983709974896,4.265092,,,8.329699741616,0,0,1.23385174552,5.699147164,28,5,7.87,9.313951741616,5.249344,0.671082,1.60401579936,0,0,0,2, -1.6, -7,0,0,1024,1024,1024,1024,0,0,0,0,11.8,0,0,77,3.949,3.918,0,0,0,0,5.646,125.42,8.329699741616,4.265092,6,P-GPS,
28800,2026-03-02 07:58:24,22.3091289230121,39.0983708304928,4.265092,,,8.329699741616,0,0.223694,1.26002628704,5.7596130452,29,5,7.869,9.313951741616,5.249344,0.671082,1.60401579936,0,-0.223694,0,1.7, -2.6, -2.9,0,0,1024,1024,1024,1024,0,0,0,0,11.8,0,0,77,3.952,3.921,0,0,0,0,5.685,125.42,8.329699741616,4.265092,6,P-GPS,
29000,2026-03-02 07:58:24,22.3091288893717,39.0983706003096,4.265092,,,8.329699741616,0,0.223694,1.28229334812,5.83825478,29,5,7.869,9.313951741616,5.249344,0.671082,1.60401579936,0,-0.223694,0,2, -1, -5.6,0,0,1024,1024,1024,1024,0,0,0,0,11.8,0,0,77,3.952,3.921,0,0,0,0,5.685,125.42,8.329699741616,4.265092,6,P-GPS,
29200,2026-03-02 07:58:24,22.3091288394015,39.0983702702098,4.265092,,,8.329699741616,0,0.447388,1.32237208956,5.9511484844,29,5,7.869,9.313951741616,5.249344,0.671082,1.60401579936,0,-0.447388,0,1.8, -2, -2.9,0,0,1024,1024,1024,1024,0,0,0,0,11.8,0,0,77,3.952,3.921,0,0,0,0,5.685,125.42,8.329699741616,4.265092,6,P-GPS,
29400,2026-03-02 07:58:24,22.3091288243365,39.0983699223722,4.265092,,,8.329699741616,0,0.223694,1.36040358684,6.0687009816,29,5,7.869,9.313951741616,5.249344,0.671082,1.60401579936,0,-0.223694,0,1.7, -1.4, 0,0,0,1024,1024,1024,1024,0,0,0,0,11.8,0,0,77,3.952,3.921,0,0,0,0,5.685,125.42,8.329699741616,4.265092,6,P-GPS,
29600,2026-03-02 07:58:24,22.3091288229582,39.0983697458189,4.265092,,,8.329699741616,0,0,1.38099741952,6.128281036,29,5,7.869,9.313951741616,5.249344,0.671082,1.60401579936,0,0,0,1.7, -0.8, -0.1,0,0,1024,1024,1024,1024,0,0,0,0,11.8,0,0,77,3.952,3.921,0,0,0,0,5.685,125.42,8.329699741616,4.265092,6,P-GPS,
29800,2026-03-02 07:58:25,22.3091287919008,39.0983697556346,4.265092,,,8.329699741616,0,0,1.390419992,6.14009206,29,5,7.867,9.313951741616,5.249344,0.671082,1.60401579936,0,0,0,1.6, -2, 0,0,0,1024,1024,1024,1024,0,0,0,0,11.8,0,0,77,3.949,3.919,0,0,0,0,5.622,125.42,8.329699741616,4.265092,6,P-GPS,
30000,2026-03-02 07:58:25,22.3091287647863,39.098369930447,4.265092,,,8.329699741616,0,0,1.380167367,6.1999345816,29,5,7.867,9.313951741616,5.249344,0.671082,1.60401579936,0,0,0,1.9, -1.1, -1.9,0,0,1024,1024,1024,1024,0,0,0,0,11.8,0,0,77,3.949,3.919,0,0,0,0,5.622,125.42,8.329699741616,4.265092,6,P-GPS,
30200,2026-03-02 07:58:25,22.3091287573383,39.0983701597274,4.265092,,,8.329699741616,0,0,1.36065949236,6.2773624056,29,5,7.867,9.313951741616,5.249344,0.671082,1.60401579936,0,0,0,1.7, -0.6, -2.9,0,0,1024,1024,1024,1024,0,0,0,0,11.7,0,0,77,3.949,3.919,0,0,0,0,5.622,125.42,8.329699741616,4.265092,6,P-GPS,
30400,2026-03-02 07:58:25,22.3091287695292,39.0983703454945,4.265092,,,8.329699741616,0,0,1.34141736576,6.3402233,29,5,7.867,9.313951741616,5.249344,0.671082,1.60401579936,0,0,0,1.7, -1, -2.9,0,0,1024,746,1024,1024,0,-42,0,0,11.8,0,0,77,3.949,3.919,0,0,0,0,5.622,125.42,8.329699741616,4.265092,6,P-GPS,
30600,2026-03-02 07:58:25,22.3091287808022,39.098370477164,4.265092,,,8.329699741616,0,0,1.32847117112,6.3848755324,29,5,7.867,9.313951741616,5.249344,0.671082,1.60401579936,0,0,0,1.9, 0.1, -1.9,0,0,1024,1024,1024,1024,0,0,0,0,11.8,0,0,77,3.949,3.919,0,0,0,0,5.622,125.42,8.329699741616,4.265092,6,P-GPS,
30800,2026-03-02 07:58:26,22.3091287585217,39.0983705883409,4.265092,,,8.329699741616,0,0,1.33007222104,6.4232613604,29,5,7.869,9.313951741616,5.249344,0.671082,1.60401579936,0,0,0,1.9, -1.6, -8.6,0,0,1024,1024,1024,1024,0,0,0,0,11.8,0,0,77,3.948,3.918,0,0,0,0,5.596,125.6,8.329699741616,4.265092,6,P-GPS,
31000,2026-03-02 07:58:26,22.3091287701342,39.0983704253444,4.265092,,,8.329699741616,0,0.223694,1.33563324484,6.4784450892,29,5,7.869,9.313951741616,5.249344,0.671082,1.60401579936,0,-0.223694,0,1.7, -0.2, -2.2,0,0,1024,1024,1024,1024,0,0,0,0,11.8,0,0,77,3.948,3.918,0,0,0,0,5.596,125.6,8.329699741616,4.265092,6,P-GPS,
31200,2026-03-02 07:58:26,22.3091287314275,39.0983701420128,4.265092,,,8.329699741616,0,0.223694,1.3713419074,6.575131444,29,5,7.869,9.313951741616,5.249344,0.671082,1.60401579936,0,-0.223694,0,1.6, -0.5, -6.8,0,0,1024,1024,1024,1024,0,0,0,0,11.8,0,0,77,3.948,3.918,0,0,0,0,5.596,125.6,8.329699741616,4.265092,6,P-GPS,
31400,2026-03-02 07:58:26,22.3091286308329,39.0983696745392,4.265092,,,8.329699741616,0,0.671082,1.45506566336,6.7371065148,29,5,7.869,9.313951741616,5.249344,0.671082,1.60401579936,0,-0.671082,0,1.6, -1.6, -0.7,0,0,1024,1024,1024,1024,0,0,0,0,11.8,0,0,77,3.948,3.918,0,0,0,0,5.596,125.6,8.329699741616,4.265092,6,P-GPS,
31600,2026-03-02 07:58:26,22.30912851109,39.0983692504863,4.265092,,,8.329699741616,0,0.447388,1.55124348796,6.8867784356,29,5,7.869,9.313951741616,5.249344,0.671082,1.60401579936,0,-0.447388,0,1.8, -2.9, 0.9,0,0,1024,1024,1024,1024,0,0,0,0,11.8,0,0,77,3.948,3.918,0,0,0,0,5.596,125.6,8.329699741616,4.265092,6,P-GPS,
31800,2026-03-02 07:58:27,22.3091284484353,39.0983690252341,4.265092,,,8.329699741616,0,0.223694,1.60535766292,6.9661747636,29,5,7.868,9.313951741616,5.249344,0.671082,1.60535766292,0,-0.223694,0,1.7, -2.1, 0,0,0,1024,1024,1024,1024,0,0,0,0,11.8,0,0,77,3.948,3.919,0,0,0,0,5.622,125.6,8.329699741616,4.265092,6,P-GPS,
32000,2026-03-02 07:58:27,22.3091284376463,39.0983689505791,4.265092,,,8.329699741616,0,0,1.6205381096,6.9916668904,29,5,7.868,9.313951741616,5.249344,0.671082,1.6205381096,0,0,0,1.7, -1.5, 0.1,0,0,1024,1024,1024,1024,0,0,0,0,11.8,0,0,77,3.948,3.919,0,0,0,0,5.622,125.6,8.329699741616,4.265092,6,P-GPS,
32200,2026-03-02 07:58:27,22.30912846292,39.0983690020005,4.265092,,,8.329699741616,0,0,1.6042815474,7.011319122,29,5,7.868,9.313951741616,5.249344,0.671082,1.6205381096,0,0,0,1.7, -1.6, -0.8,0,0,1024,1024,1024,1024,0,0,0,0,11.8,0,0,77,3.948,3.919,0,0,0,0,5.622,125.6,8.329699741616,4.265092,6,P-GPS,
32400,2026-03-02 07:58:27,22.309128508265,39.0983691229746,4.265092,,,8.329699741616,0,0,1.57095477468,7.0553808032,29,5,7.868,9.313951741616,5.249344,0.671082,1.6205381096,0,0,0,1.7, -1.3, -1.7,0,0,1024,1024,1024,1024,0,0,0,0,11.8,0,0,77,3.948,3.919,0,0,0,0,5.622,125.6,8.329699741616,4.265092,6,P-GPS,
32600,2026-03-02 07:58:27,22.3091285342348,39.0983692438144,4.265092,,,8.329699741616,0,0,1.5445702594,7.0972443216,29,5,7.868,9.313951741616,5.249344,0.671082,1.6205381096,0,0,0,1.7, -1.4, -1.8,0,0,1024,1024,1024,1024,0,0,0,0,11.8,0,0,77,3.948,3.919,0,0,0,0,5.622,125.6,8.329699741616,4.265092,6,P-GPS,
32800,2026-03-02 07:58:28,22.3091285377761,39.0983693481481,4.265092,,,8.329699741616,0,0,1.52862865784,7.1325133516,29,5,7.867,9.313951741616,5.249344,0.671082,1.6205381096,0,0,0,1.7, -1.8, -1.3,0,0,1024,1024,1024,1024,0,0,0,0,11.8,0,0,77,3.948,3.917,0,0,0,0,5.405,125.6,8.329699741616,4.265092,6,P-GPS,
33000,2026-03-02 07:58:28,22.3091285579985,39.0983694770766,4.265092,,,8.329699741616,0,0,1.50450136048,7.1766406496,29,5,7.867,9.313951741616,5.249344,0.671082,1.6205381096,0,0,0,1.6, -1.4, -2.8,0,0,1024,1024,1024,1024,0,0,0,0,11.8,0,0,77,3.948,3.917,0,0,0,0,5.405,125.6,8.329699741616,4.265092,6,P-GPS,
33200,2026-03-02 07:58:28,22.3091285893515,39.0983695588758,4.265092,,,8.329699741616,0,0,1.48340227844,7.206529102,29,5,7.867,9.313951741616,5.249344,0.671082,1.6205381096,0,0,0,1.7, -0.9, -2.6,0,0,1024,1024,1024,1024,0,0,0,0,11.8,0,0,77,3.948,3.917,0,0,0,0,5.405,125.6,8.329699741616,4.265092,6,P-GPS,
33400,2026-03-02 07:58:28,22.3091285839126,39.0983695658255,4.265092,,,8.329699741616,0,0,1.4843668454,7.2096130916,29,5,7.867,9.313951741616,5.249344,0.671082,1.6205381096,0,0,0,1.8, -1.1, -2,0,0,1024,1024,1024,1024,0,0,0,0,11.8,0,0,77,3.948,3.917,0,0,0,0,5.405,125.6,8.329699741616,4.265092,6,P-GPS,
33600,2026-03-02 07:58:28,22.3091285619918,39.0983695443004,4.265092,,,8.329699741616,0,0,1.49450136016,7.2204070552,29,5,7.867,9.313951741616,5.249344,0.671082,1.6205381096,0,0,0,1.8, -1.7, -1.8,0,0,1024,1024,1024,1024,0,0,0,0,11.8,0,0,77,3.948,3.917,0,0,0,0,5.405,125.6,8.329699741616,4.265092,6,P-GPS,
33800,2026-03-02 07:58:29,22.3091285753424,39.0983695313177,4.265092,,,8.329699741616,0,0,1.49164046768,7.2269687352,29,5,7.863,9.313951741616,5.249344,0.671082,1.6205381096,0,0,0,1.9, -1, -1.5,0,0,1024,1024,1024,1024,0,0,0,0,11.8,0,0,77,3.946,3.916,0,0,0,0,5.525,125.78,8.329699741616,4.265092,6,P-GPS,
34000,2026-03-02 07:58:29,22.3091286064705,39.0983695499027,4.265092,,,8.329699741616,0,0,1.478756609,7.2399280532,29,5,7.863,9.313951741616,5.249344,0.671082,1.6205381096,0,0,0,1.7, -1.1, -2.5,0,0,1024,1024,1024,1024,0,0,0,0,11.8,0,0,77,3.946,3.916,0,0,0,0,5.525,125.78,8.329699741616,4.265092,6,P-GPS,
34200,2026-03-02 07:58:29,22.3091286479519,39.0983695660616,4.265092,,,8.329699741616,0,0,1.462680493,7.2560041692,29,5,7.863,9.313951741616,5.249344,0.671082,1.6205381096,0,0,0,1.8, -0.8, -2.5,0,0,1024,1024,1024,1024,0,0,0,0,11.7,0,0,77,3.946,3.916,0,0,0,0,5.525,125.78,8.329699741616,4.265092,6,P-GPS,
34400,2026-03-02 07:58:29,22.3091286894225,39.098369556783,4.265092,,,8.329699741616,0,0,1.449885217,7.2714569256,29,5,7.863,9.313951741616,5.249344,0.671082,1.6205381096,0,0,0,1.6, -0.6, -2.1,0,0,1024,1024,1024,1024,0,0,0,0,11.8,0,0,77,3.946,3.916,0,0,0,0,5.525,125.78,8.329699741616,4.265092,6,P-GPS,
34600,2026-03-02 07:58:30,22.3091287235105,39.0983695257339,4.265092,,,8.329699741616,0,0,1.44249348448,7.287729892,29,5,7.863,9.313951741616,5.249344,0.671082,1.6205381096,0,0,0,1.8, -0.3, -2.1,0,0,1024,1024,1024,1024,0,0,0,0,11.8,0,0,77,3.946,3.916,0,0,0,0,5.525,125.78,8.329699741616,4.265092,6,P-GPS,
35000,2026-03-02 07:58:30,22.309128780254,39.0983694758404,4.265092,,,8.329699741616,0,0,1.43026907464,7.3144359296,29,5,7.864,9.313951741616,5.249344,0.671082,1.6205381096,0,0,0,1.7, -1.2, -2.6,0,0,1024,1024,1024,1024,0,0,0,0,11.8,0,0,77,3.946,3.915,0,0,0,0,5.477,125.78,8.329699741616,4.265092,6,P-GPS,
35200,2026-03-02 07:58:30,22.3091288379269,39.0983694708862,4.265092,,,8.329699741616,0,0,1.4117782604,7.3355317308,29,5,7.864,9.313951741616,5.249344,0.671082,1.6205381096,0,0,0,1.7, -0.6, -1.7,0,0,1024,1024,1024,1024,0,0,0,0,11.8,0,0,77,3.946,3.915,0,0,0,0,5.477,125.78,8.329699741616,4.265092,6,P-GPS,
35400,2026-03-02 07:58:30,22.3091288779208,39.098369484281,4.265092,,,8.329699741616,0,0,1.39662734128,7.3508204452,29,5,7.864,9.313951741616,5.249344,0.671082,1.6205381096,0,0,0,1.7, -0.7, -2.9,0,0,1024,1024,1024,1024,0,0,0,0,11.8,0,0,77,3.946,3.915,0,0,0,0,5.477,125.78,8.329699741616,4.265092,6,P-GPS,
35600,2026-03-02 07:58:30,22.3091289231363,39.0983694718585,4.265092,,,8.329699741616,0,0,1.38340883692,7.3678151964,29,5,7.864,9.313951741616,5.249344,0.671082,1.6205381096,0,0,0,1.7, -0.6, -2.2,0,0,1024,1024,1024,1024,0,0,0,0,11.8,0,0,77,3.946,3.915,0,0,0,0,5.477,125.78,8.329699741616,4.265092,6,P-GPS,
35800,2026-03-02 07:58:31,22.3091289705524,39.0983694306603,4.265092,,,8.329699741616,0,0,1.37375660564,7.3900264832,29,5,7.864,9.313951741616,5.249344,0.671082,1.6205381096,0,0,0,1.8, -0.3, -2.4,0,0,1024,1024,1024,1024,0,0,0,0,11.7,0,0,77,3.946,3.915,0,0,0,0,5.477,125.78,8.329699741616,4.265092,6,P-GPS,
36000,2026-03-02 07:58:31,22.3091289938814,39.0983693627466,4.265092,,,8.329699741616,0,0,1.37630581832,7.4144687412,30,5,7.858,9.313951741616,5.249344,0.671082,1.6205381096,0,0,0,1.7, -0.3, -2.2,0,0,1024,1024,1024,1024,0,0,0,0,11.8,0,0,77,3.944,3.914,0,0,0,0,5.558,125.78,8.329699741616,4.265092,6,P-GPS,
36200,2026-03-02 07:58:31,22.3091290018059,39.0983692810447,4.265092,,,8.329699741616,0,0,1.38643049056,7.4421918392,30,5,7.858,9.313951741616,5.249344,0.671082,1.6205381096,0,0,0,1.7, -0.6, -1.8,0,0,1024,1024,1024,1024,0,0,0,0,11.7,0,0,77,3.944,3.914,0,0,0,0,5.558,125.78,8.329699741616,4.265092,6,P-GPS,
36400,2026-03-02 07:58:31,22.3091290156212,39.0983692323643,4.265092,,,8.329699741616,0,0,1.38977694736,7.4593834408,30,5,7.858,9.313951741616,5.249344,0.671082,1.6205381096,0,0,0,1.7, -0.3, -1.8,0,0,1024,1024,1024,1024,0,0,0,0,11.7,0,0,77,3.944,3.914,0,0,0,0,5.558,125.78,8.329699741616,4.265092,6,P-GPS,
36600,2026-03-02 07:58:31,22.3091290346656,39.0983692188538,4.265092,,,8.329699741616,0,0,1.38588259028,7.4677167744,30,5,7.858,9.313951741616,5.249344,0.671082,1.6205381096,0,0,0,1.7, -0.9, -2.1,0,0,1024,1024,1024,1024,0,0,0,0,11.8,0,0,77,3.944,3.914,0,0,0,0,5.558,125.78,8.329699741616,4.265092,6,P-GPS,
36800,2026-03-02 07:58:32,22.3091290808299,39.0983692265304,4.265092,,,8.329699741616,0,0,1.3698983378,7.484744334,30,5,7.858,9.313951741616,5.249344,0.671082,1.6205381096,0,0,0,1.6, -1.1, -2.1,0,0,1024,1024,1024,1024,0,0,0,0,11.8,0,0,77,3.944,3.914,0,0,0,0,5.558,125.78,8.329699741616,4.265092,6,P-GPS,
37000,2026-03-02 07:58:32,22.309129147435,39.0983692348321,4.265092,,,8.329699741616,0,0,1.34734912448,7.5092194004,29,5,7.855,9.313951741616,5.249344,0.671082,1.6205381096,0,0,0,1.7, -0.3, -2,0,0,1024,1024,1024,1024,0,0,0,0,11.8,0,0,77,3.943,3.912,0,0,0,0,5.755,125.78,8.329699741616,4.265092,6,P-GPS,
37200,2026-03-02 07:58:32,22.3091291936539,39.0983692303687,4.265092,,,8.329699741616,0,0,1.33346132876,7.5261485348,29,5,7.855,9.313951741616,5.249344,0.671082,1.6205381096,0,0,0,1.8, -0.6, -2.5,0,0,1024,1024,1024,1024,0,0,0,0,11.8,0,0,77,3.943,3.912,0,0,0,0,5.755,125.78,8.329699741616,4.265092,6,P-GPS,
37400,2026-03-02 07:58:32,22.3091292268702,39.0983691919995,4.265092,,,8.329699741616,0,0,1.32955056748,7.5438650708,29,5,7.855,9.313951741616,5.249344,0.671082,1.6205381096,0,0,0,1.9, -0.2, -1.7,0,0,1024,897,1024,1024,0,-19,0,0,11.8,0,0,77,3.943,3.912,0,0,0,0,5.755,125.78,8.329699741616,4.265092,6,P-GPS,
