time(millisecond),datetime(utc),latitude,longitude,height_above_takeoff(feet),height_above_ground_at_drone_location(feet),ground_elevation_at_drone_location(feet),altitude_above_seaLevel(feet),height_sonar(feet),speed(mph),distance(feet),mileage(feet),satellites,gpslevel,voltage(v),max_altitude(feet),max_ascent(feet),max_speed(mph),max_distance(feet), xSpeed(mph), ySpeed(mph), zSpeed(mph), compass_heading(degrees), pitch(degrees), roll(degrees),isPhoto,isVideo,rc_elevator,rc_aileron,rc_throttle,rc_rudder,rc_elevator(percent),rc_aileron(percent),rc_throttle(percent),rc_rudder(percent),gimbal_heading(degrees),gimbal_pitch(degrees),gimbal_roll(degrees),battery_percent,voltageCell1,voltageCell2,voltageCell3,voltageCell4,voltageCell5,voltageCell6,current(A),battery_temperature(f),altitude(feet),ascent(feet),flycStateRaw,flycState,message
0,2026-03-02 07:58:20,22.3091432119219,39.0982728224506,0,Available with any HD 360 subscription,Available with any HD 360 subscription,3.17751322504,0.328084,0,0,0,30,5,0,3.17751322504,0,0,0,0,0,0,6.5, -3.3, -1.2,0,0,1024,1024,1024,1024,0,0,0,0,6.6,0,0,75,3.952,3.934,0,0,0,0,0,118.04,3.17751322504,0,41,Motors_Started,"Aircraft not in flight. Vision systems and obstacle avoidance disabled (Code: 180059)"
200,2026-03-02 07:58:21,22.3091432095119,39.098272850571,0,,,3.17751322504,0.328084,0,0.0095323821948,0.0095323821948,30,5,0,3.17751322504,0,0,0.0095323821948,0,0,0,6.6, -3.3, -1.2,0,0,1024,1024,1024,1024,0,0,0,0,6.6,0,0,75,3.952,3.934,0,0,0,0,0,118.04,3.17751322504,0,41,Motors_Started,
400,2026-03-02 07:58:21,22.3091431915999,39.0982728762979,0,,,3.17751322504,0,0,0.019629757846,0.020400591204,30,5,0,3.17751322504,0,0,0.019629757846,0,0,0,6.8, -3.3, -1.2,0,0,1024,1024,1024,1024,0,0,0,0,6.6,0,0,75,3.952,3.934,0,0,0,0,0,118.04,3.17751322504,0,41,Motors_Started,"Setting new Return-To-Home altitude to 100m (328 ft). Data Recorder File Index is 20. Setting new Maximum Flight Altitude to 120m (394 ft)"
600,2026-03-02 07:58:21,22.3091431644972,39.0982728989941,0,,,3.17751322504,0,0,0.0310952437772,0.032909449872,30,5,0,3.17751322504,0,0,0.0310952437772,0,0,0,6.9, -3.3, -1.2,0,0,1024,1024,1024,1024,0,0,0,0,6.6,0,0,75,3.952,3.934,0,0,0,0,0,118.04,3.17751322504,0,41,Motors_Started,
800,2026-03-02 07:58:21,22.3091431445795,39.0982729198716,0,,,3.17751322504,0,0,0.041048885828,0.043032153608,30,5,0,3.17751322504,0,0,0.041048885828,0,0,0,6.8, -3.3, -1.2,0,0,1024,1024,1024,1024,0,0,0,0,6.6,0,0,75,3.952,3.934,0,0,0,0,0,118.04,3.17751322504,0,41,Motors_Started,
1000,2026-03-02 07:58:21,22.3091431311229,39.0982729368639,0,,,3.17751322504,0,0,0.048584647224,0.050582022616,30,5,0,3.17751322504,0,0,0.048584647224,0,0,0,6.9, -3.3, -1.2,0,0,1024,1024,1024,1024,0,0,0,0,6.6,0,0,75,3.952,3.934,0,0,0,0,0,118.04,3.17751322504,0,41,Motors_Started,
1200,2026-03-02 07:58:22,22.3091431215851,39.0982729338443,0,,,3.17751322504,0,0,0.050000657768,0.054208006984,30,5,0,3.17751322504,0,0,0.050000657768,0,0,0,6.8, -3.3, -1.2,0,0,1024,1024,1024,1024,0,0,0,0,6.6,0,0,75,3.952,3.934,0,0,0,0,0,118.04,3.17751322504,0,41,Motors_Started,
1400,2026-03-02 07:58:22,22.3091431134711,39.0982729165976,0,,,3.17751322504,0,0,0.04795931912,0.060738847088,30,5,0,3.17751322504,0,0,0.050000657768,0,0,0,6.9, -3.3, -1.2,0,0,1024,1024,1024,1024,0,0,0,0,6.6,0,0,75,3.952,3.934,0,0,0,0,0,118.04,3.17751322504,0,41,Motors_Started,
1600,2026-03-02 07:58:22,22.3091430881782,39.0982728995046,0,,,3.17751322504,0,0,0.052103676208,0.07162237762,30,5,7.901,3.17751322504,0,0,0.052103676208,0,0,0,6.9, -3.2, -1.2,0,0,1024,1024,1024,1024,0,0,0,0,6.6,0,0,75,3.952,3.934,0,0,0,0,1.706,118.04,3.17751322504,0,11,AutoTakeoff,
1800,2026-03-02 07:58:22,22.3091430358788,39.0982728838865,0,,,3.17751322504,0,0,0.067493768564,0.091418638096,30,5,7.901,3.17751322504,0,0,0.067493768564,0,0,0,6.8, -3.2, -1.1,0,0,1024,1024,1024,1024,0,0,0,0,6.6,0,0,75,3.952,3.934,0,0,0,0,1.706,118.04,3.17751322504,0,11,AutoTakeoff,
2000,2026-03-02 07:58:22,22.3091429841514,39.0982728744554,0,,,3.17751322504,0,0,0.084935698256,0.11055774632,30,5,7.901,3.17751322504,0,0,0.084935698256,0,0,0,6.9, -3.5, 0,0,0,1024,1024,1024,1024,0,0,0,0,6.6,0,0,75,3.952,3.934,0,0,0,0,1.706,118.04,3.17751322504,0,11,AutoTakeoff,
2200,2026-03-02 07:58:23,22.3091430466609,39.0982729295823,0,,,3.17751322504,0,0.223694,0.070307745032,0.139992130464,30,5,7.901,3.17751322504,0,0.223694,0.084935698256,0.223694,0,-0.223694,6.2, -4.4, 2.6,0,0,1024,1024,1024,1024,0,0,0,0,6.6,0,0,75,3.952,3.934,0,0,0,0,1.706,118.04,3.17751322504,0,11,AutoTakeoff,
2400,2026-03-02 07:58:23,22.3091433273181,39.0982731660636,0,,,3.17751322504,0.328084,0.3131716,0.123388455392,0.26982612412,30,5,7.901,3.17751322504,0,0.3131716,0.123388455392,0.223694,0.223694,-0.894776,6.3, 2, -1.5,0,0,1024,1024,1024,1024,0,0,0,0,6.6,0,0,75,3.952,3.934,0,0,0,0,1.706,118.04,3.17751322504,0,11,AutoTakeoff,
2600,2026-03-02 07:58:23,22.3091435024097,39.0982733432174,0.328084,,,3.50559722504,0.328084,0,0.205258864836,0.35732612692,30,5,7.894,3.50559722504,0.328084,0.3131716,0.205258864836,0,0,-1.11847,6.4, 1.5, -0.8,0,0,1024,1024,1024,1024,0,0,0,0,6.6,0,0,75,3.957,3.942,0,0,0,0,3.005,118.04,3.50559722504,0.328084,11,AutoTakeoff,
2800,2026-03-02 07:58:23,22.3091434060632,39.0982734003795,0.656168,,,3.83368122504,0.328084,0,0.20753609588,0.39742783424,30,5,7.894,3.83368122504,0.656168,0.3131716,0.20753609588,0,0,-1.11847,6.4, -0.9, 0.5,0,0,1024,1024,1024,1024,0,0,0,0,6.6,0,0,75,3.957,3.942,0,0,0,0,3.005,118.04,3.83368122504,0.656168,11,AutoTakeoff,
3000,2026-03-02 07:58:23,22.309143119317,39.0982734945138,1.312336,,,4.48984922504,0,0.223694,0.229350729124,0.50676510808,30,5,7.894,4.48984922504,1.312336,0.3131716,0.229350729124,-0.223694,0,-1.11847,6.3, -3.4, -0.6,0,0,1024,1024,1024,1024,0,0,0,0,6.6,0,0,75,3.957,3.942,0,0,0,0,3.005,118.04,4.48984922504,1.312336,11,AutoTakeoff,
3200,2026-03-02 07:58:24,22.3091427811968,39.0982735704774,1.64042,,,4.81793322504,0,0.223694,0.2973999439,0.63276248744,30,5,7.894,4.81793322504,1.64042,0.3131716,0.2973999439,-0.223694,0,-0.894776,6.4, -4.3, -1.9,0,0,1024,1024,1024,1024,0,0,0,0,6.6,0,0,75,3.957,3.942,0,0,0,0,3.005,118.04,4.81793322504,1.64042,11,AutoTakeoff,
3400,2026-03-02 07:58:24,22.3091425329742,39.0982735735333,1.968504,,,5.14601722504,0,0,0.35444883024,0.72333335648,30,5,7.894,5.14601722504,1.968504,0.3131716,0.35444883024,0,0,-0.894776,6.4, -5.4, -1,0,0,1024,1024,1024,1024,0,0,0,0,6.6,0,0,75,3.957,3.942,0,0,0,0,3.005,118.04,5.14601722504,1.968504,11,AutoTakeoff,"Home Point updated (Code: 3000001)"
3600,2026-03-02 07:58:24,22.3091424519348,39.0982735303782,2.296588,,,5.47410122504,0,0,0.36603675712,0.75629595596,30,5,7.847,5.47410122504,2.296588,0.3131716,0.36603675712,0,0,-1.11847,6.3, -2.9, -0.6,0,0,1024,1024,1024,1024,0,0,0,0,6.6,0,0,74,3.931,3.905,0,0,0,0,4.098,118.04,5.47410122504,2.296588,11,AutoTakeoff,
3800,2026-03-02 07:58:24,22.309142458685,39.0982734013443,2.624672,,,5.80218522504,0,0,0.3372047352,0.7999180046,30,5,7.847,5.80218522504,2.624672,0.3131716,0.36603675712,0,0,-0.894776,6.4, -2.1, 1.2,0,0,1024,1024,1024,1024,0,0,0,0,6.6,0,0,74,3.931,3.905,0,0,0,0,4.098,118.04,5.80218522504,2.624672,11,AutoTakeoff,
4000,2026-03-02 07:58:24,22.3091424833574,39.0982732974302,2.952756,,,6.13026922504,0,0,0.310422910196,0.83612863568,30,5,7.847,6.13026922504,2.952756,0.3131716,0.36603675712,0,0,-1.11847,6.3, -1.2, 0.8,0,0,1024,1024,1024,1024,0,0,0,0,6.6,0,0,74,3.931,3.905,0,0,0,0,4.098,118.04,6.13026922504,2.952756,11,AutoTakeoff,
4200,2026-03-02 07:58:25,22.309142428201,39.0982732289821,3.28084,,,6.45835322504,0,0,0.317161099388,0.86676840044,30,5,7.847,6.45835322504,3.28084,0.3131716,0.36603675712,0,0,-1.11847,6.3, -2.6, 0,0,0,1024,1024,1024,1024,0,0,0,0,6.6,0,0,74,3.931,3.905,0,0,0,0,4.098,118.04,6.45835322504,3.28084,11,AutoTakeoff,
4400,2026-03-02 07:58:25,22.3091423649911,39.0982731358297,3.28084,,,6.45835322504,0,0,0.326605653496,0.90576118384,30,5,7.847,6.45835322504,3.28084,0.3131716,0.36603675712,0,0,-0.894776,6.2, -3.4, 1.3,0,0,1024,1024,1024,1024,0,0,0,0,6.6,0,0,74,3.931,3.905,0,0,0,0,4.098,118.04,6.45835322504,3.28084,11,AutoTakeoff,
4600,2026-03-02 07:58:25,22.3091423632381,39.0982730728895,3.608924,,,6.78643722504,0,0,0.320973435468,0.9270177462,31,5,7.831,6.78643722504,3.608924,0.3131716,0.36603675712,0,0,-0.894776,6.2, -3.5, 2.1,0,0,1024,1024,1024,1024,0,0,0,0,6.6,0,0,74,3.931,3.901,0,0,0,0,5.773,118.04,6.78643722504,3.608924,11,AutoTakeoff,
4800,2026-03-02 07:58:25,22.3091424585752,39.0982730725941,3.937008,,,7.11452122504,0,0,0.287534129936,0.96180121188,31,5,7.831,7.11452122504,3.937008,0.3131716,0.36603675712,0,0,-0.894776,6.3, -1.9, 1.5,0,0,1024,1024,1024,1024,0,0,0,0,6.6,0,0,74,3.931,3.901,0,0,0,0,5.773,118.04,7.11452122504,3.937008,11,AutoTakeoff,
5000,2026-03-02 07:58:25,22.3091425874506,39.0982731226053,4.265092,,,7.44260522504,0,0,0.24934876126,1.01175856256,31,5,7.831,7.44260522504,4.265092,0.3131716,0.36603675712,0,0,-1.11847,6.4, -1.5, 1.5,0,0,1024,1024,1024,1024,0,0,0,0,6.6,0,0,74,3.931,3.901,0,0,0,0,5.773,118.04,7.44260522504,4.265092,11,AutoTakeoff,
5200,2026-03-02 07:58:26,22.3091426603364,39.0982732073432,4.593176,,,7.77068922504,0,0,0.23953740924,1.05081368192,31,5,7.831,7.77068922504,4.593176,0.3131716,0.36603675712,0,0,-0.894776,6.4, -1.3, 1.2,0,0,1024,1024,1024,1024,0,0,0,0,6.6,0,0,74,3.931,3.901,0,0,0,0,5.773,118.04,7.77068922504,4.593176,11,AutoTakeoff,
5400,2026-03-02 07:58:26,22.3091426689537,39.0982733045533,4.92126,,,8.09877322504,0,0,0.256368774608,1.0837762814,31,5,7.831,8.09877322504,4.92126,0.3131716,0.36603675712,0,0,-0.894776,6.4, -1.9, 0.7,0,0,1024,1024,993,1024,0,0,-5,0,6.6,0,0,74,3.931,3.901,0,0,0,0,5.773,118.04,8.09877322504,4.92126,11,AutoTakeoff,"Remove gimbal protector Land aircraft and remove gimbal protector to ensure flight safety (Code: 30316). Land aircraft and remove gimbal protector to ensure flight safety (Code: 1612000B). Aircraft not in flight. Vision systems and obstacle avoidance disabled (Code: 180059)"
5600,2026-03-02 07:58:26,22.3091426769178,39.098273374211,5.249344,,,8.42685722504,0,0,0.269791019132,1.10746722704,31,5,7.824,8.42685722504,5.249344,0.3131716,0.36603675712,0,0,-0.894776,6.4, -1.7, 0.8,0,0,1024,1024,1024,1024,0,0,0,0,6.6,0,0,74,3.923,3.896,0,0,0,0,5.804,118.04,8.42685722504,5.249344,11,AutoTakeoff,
5800,2026-03-02 07:58:26,22.3091426747161,39.0982734223804,5.577428,,,8.75494122504,0,0,0.28181923474,1.12374675512,30,5,7.824,8.75494122504,5.577428,0.3131716,0.36603675712,0,0,-0.894776,6.5, -1.3, 1.2,0,0,1024,1024,1024,1024,0,0,0,0,6.6,0,0,74,3.923,3.896,0,0,0,0,5.804,118.04,8.75494122504,5.577428,11,AutoTakeoff,
6000,2026-03-02 07:58:26,22.309142632687,39.098273472491,5.905512,,,9.08302522504,0,0,0.304638461192,1.14657812068,30,5,7.824,9.08302522504,5.905512,0.3131716,0.36603675712,0,0,-0.894776,6.5, -2.3, 0.4,0,0,1024,1024,1024,1024,0,0,0,0,6.6,0,0,74,3.923,3.896,0,0,0,0,5.804,118.04,9.08302522504,5.905512,11,AutoTakeoff,
6200,2026-03-02 07:58:27,22.3091426029102,39.0982735169065,6.233596,,,9.41110922504,0,0,0.322983278052,1.1650919008,30,5,7.824,9.41110922504,6.233596,0.3131716,0.36603675712,0,0,-0.894776,6.5, -2.4, 0.3,0,0,1024,1024,1024,1024,0,0,0,0,6.6,0,0,74,3.923,3.896,0,0,0,0,5.804,118.04,9.41110922504,6.233596,11,AutoTakeoff,
6400,2026-03-02 07:58:27,22.3091425988902,39.0982735285083,6.56168,,,9.73919322504,0,0,0.326838593136,1.1692749718,30,5,7.824,9.73919322504,6.56168,0.3131716,0.36603675712,0,0,-0.894776,6.4, -2, 1.2,0,0,1024,1024,1092,1024,0,0,10,0,6.6,0,0,74,3.923,3.896,0,0,0,0,5.804,118.04,9.73919322504,6.56168,11,AutoTakeoff,
6600,2026-03-02 07:58:27,22.3091425683987,39.0982735578895,6.56168,,,9.73919322504,0,0,0.34168636264,1.18417654708,30,5,7.816,9.73919322504,6.56168,0.3131716,0.36603675712,0,0,-0.894776,6.5, -0.6, 0.2,0,0,1024,1024,1024,1024,0,0,0,0,6.6,0,0,74,3.922,3.894,0,0,0,0,5.834,118.22,9.73919322504,6.56168,11,AutoTakeoff,
6800,2026-03-02 07:58:27,22.3091424468021,39.0982735507574,6.889764,,,10.06727722504,0,0,0.37196851584,1.22860568236,30,5,7.816,10.06727722504,6.889764,0.3131716,0.37196851584,0,0,-0.671082,6.4, -1.8, 0.4,0,0,1024,1024,752,1024,0,0,-41,0,6.6,0,0,74,3.922,3.894,0,0,0,0,5.834,118.22,10.06727722504,6.889764,11,AutoTakeoff,
7000,2026-03-02 07:58:27,22.3091422833397,39.0982735275869,7.217848,,,10.39536122504,0,0,0.414042008,1.28875660292,30,5,7.816,10.39536122504,7.217848,0.3131716,0.414042008,0,0,-0.894776,6.5, -1.6, -0.3,0,0,1024,1024,420,1024,0,0,-92,0,6.6,0,0,74,3.922,3.894,0,0,0,0,5.834,118.22,10.39536122504,7.217848,11,AutoTakeoff,
7200,2026-03-02 07:58:28,22.3091420644687,39.0982734713589,7.217848,,,10.39536122504,0,0.223694,0.47248361092,1.37083665804,30,5,7.816,10.39536122504,7.217848,0.3131716,0.47248361092,-0.223694,0,0.223694,6.5, -2, 0,0,0,1024,1024,1024,1024,0,0,0,0,6.6,0,0,74,3.922,3.894,0,0,0,0,5.834,118.22,10.39536122504,7.217848,11,AutoTakeoff,
7400,2026-03-02 07:58:28,22.3091417817881,39.0982733801219,6.889764,,,10.06727722504,0,0.223694,0.55469818048,1.47847117592,31,5,7.816,10.39536122504,7.217848,0.3131716,0.55469818048,-0.223694,0,1.342164,6.3, -4.6, -0.7,0,0,1024,1024,1024,1024,0,0,0,0,6.6,0,0,74,3.922,3.894,0,0,0,0,5.834,118.22,10.06727722504,6.889764,11,AutoTakeoff,
7600,2026-03-02 07:58:28,22.3091416417483,39.0982732363638,6.56168,,,9.73919322504,0,0,0.58966865404,1.5489337766,31,5,7.805,10.39536122504,7.217848,0.3131716,0.58966865404,0,0,0,6.4, -3.4, 0.7,0,0,1024,1024,496,1024,0,0,-80,0,6.6,0,0,74,3.928,3.877,0,0,0,0,6.038,118.4,9.73919322504,6.56168,11,AutoTakeoff,
7800,2026-03-02 07:58:28,22.3091416298798,39.0982730837629,6.56168,,,9.73919322504,0.328084,0,0.583907499,1.60062669164,31,5,7.805,10.39536122504,7.217848,0.3131716,0.58966865404,0,0,-0.447388,6.4, -0.9, 1.3,0,0,1024,1024,1024,1024,0,0,0,0,6.6,0,0,74,3.928,3.877,0,0,0,0,6.038,118.4,9.73919322504,6.56168,11,AutoTakeoff,
8000,2026-03-02 07:58:28,22.3091416138141,39.0982729080653,6.889764,,,10.06727722504,0,0,0.58378282708,1.6602198694,31,5,7.805,10.39536122504,7.217848,0.3131716,0.58966865404,0,0,0.223694,6.4, -2.4, 0.7,0,0,1024,1024,1157,1024,0,0,20,0,6.6,0,0,74,3.928,3.877,0,0,0,0,6.038,118.4,10.06727722504,6.889764,11,AutoTakeoff,
8200,2026-03-02 07:58:29,22.3091416165127,39.0982727124592,6.889764,,,10.06727722504,0,0,0.5832677352,1.72625333608,31,5,7.805,10.39536122504,7.217848,0.3131716,0.58966865404,0,0,-0.447388,6.5, -0.7, 1.4,0,0,1024,1024,1024,1024,0,0,0,0,6.6,0,0,74,3.928,3.877,0,0,0,0,6.038,118.4,10.06727722504,6.889764,11,AutoTakeoff,
8400,2026-03-02 07:58:29,22.3091415441516,39.0982725166319,6.889764,,,10.06727722504,0,0,0.61717849744,1.79742787904,30,5,7.805,10.39536122504,7.217848,0.3131716,0.61717849744,0,0,0,6.5, -2.9, 0.8,0,0,1024,1024,896,1024,0,0,-19,0,6.6,0,0,74,3.928,3.877,0,0,0,0,6.038,118.4,10.06727722504,6.889764,11,AutoTakeoff,
8600,2026-03-02 07:58:29,22.3091414723747,39.0982723441486,6.889764,,,10.06727722504,0,0,0.65488519156,1.86126646376,30,5,7.805,10.39536122504,7.217848,0.3131716,0.65488519156,0,0,-0.447388,6.6, -2.2, 2.4,0,0,1024,1024,761,1024,0,0,-40,0,6.6,0,0,74,3.928,3.877,0,0,0,0,6.038,118.4,10.06727722504,6.889764,11,AutoTakeoff,
8800,2026-03-02 07:58:29,22.3091413705357,39.0982723101932,6.889764,,,10.06727722504,0,0,0.69372377548,1.90015097944,30,5,7.805,10.39536122504,7.217848,0.3131716,0.69372377548,0,0,0,6.5, -2, 0.4,0,0,1024,1024,764,1024,0,0,-39,0,6.6,0,0,74,3.928,3.877,0,0,0,0,6.038,118.4,10.06727722504,6.889764,11,AutoTakeoff,
9000,2026-03-02 07:58:29,22.3091412357604,39.098272335842,6.889764,,,10.06727722504,0,0,0.73947180844,1.95007880256,31,5,7.807,10.39536122504,7.217848,0.3131716,0.73947180844,0,0,0,6.4, -3.5, 0,0,0,1024,1024,1024,1024,0,0,0,0,6.6,0,0,74,3.913,3.889,0,0,0,0,6.352,118.58,10.06727722504,6.889764,11,AutoTakeoff,
9200,2026-03-02 07:58:30,22.3091411509328,39.0982723135555,6.889764,,,10.06727722504,0,0,0.77132220316,1.98192919728,31,5,7.807,10.39536122504,7.217848,0.3131716,0.77132220316,0,0,0,6.5, -4.2, 0,0,0,1024,1024,1024,1024,0,0,0,0,6.6,0,0,74,3.913,3.889,0,0,0,0,6.352,118.58,10.06727722504,6.889764,11,AutoTakeoff,
9400,2026-03-02 07:58:30,22.3091411498121,39.0982722440688,6.889764,,,10.06727722504,0,0,0.77727692776,2.00538720328,31,5,7.807,10.39536122504,7.217848,0.3131716,0.77727692776,0,0,-0.447388,6.6, -1.9, 2.4,0,0,1024,1024,1024,1420,0,0,0,60,6.6,0,0,74,3.913,3.889,0,0,0,0,6.352,118.58,10.06727722504,6.889764,11,AutoTakeoff,
9600,2026-03-02 07:58:30,22.3091411023162,39.0982723008964,7.217848,,,10.39536122504,0.328084,0,0.78956367356,2.03123694164,31,5,7.807,10.39536122504,7.217848,0.3131716,0.78956367356,0,0,-0.671082,10.7, -1.7, 0.1,0,0,1024,1024,1024,1024,0,0,0,0,7.4,0,0,74,3.913,3.889,0,0,0,0,6.352,118.58,10.39536122504,7.217848,11,AutoTakeoff,
9800,2026-03-02 07:58:30,22.3091409856815,39.0982723974637,7.217848,,,10.39536122504,0.328084,0,0.82481301852,2.0848425864,31,5,7.807,10.39536122504,7.217848,0.3131716,0.82481301852,0,0,-0.671082,11.5, -3.2, -0.5,0,0,1024,1024,905,1024,0,0,-18,0,9.4,0,0,74,3.913,3.889,0,0,0,0,6.352,118.58,10.39536122504,7.217848,11,AutoTakeoff,
10000,2026-03-02 07:58:30,22.3091408672911,39.098272508292,7.545932,,,10.72344522504,0,0,0.86198493572,2.14198497668,31,5,7.769,10.72344522504,7.545932,0.3131716,0.86198493572,0,0,-0.671082,11.4, -2.5, -1.2,0,0,1024,1024,453,1024,0,0,-87,0,9.7,0,0,74,3.912,3.883,0,0,0,0,5.937,118.58,10.72344522504,7.545932,11,AutoTakeoff,
10200,2026-03-02 07:58:31,22.3091407523173,39.0982725938163,7.874016,,,11.05152922504,0,0,0.90069884772,2.19290689432,30,5,7.769,11.05152922504,7.874016,0.3131716,0.90069884772,0,0,-0.223694,11.5, -0.9, -1,0,0,1024,1024,456,1024,0,0,-86,0,9.9,0,0,74,3.912,3.883,0,0,0,0,5.937,118.58,11.05152922504,7.874016,11,AutoTakeoff,
10400,2026-03-02 07:58:31,22.3091405675016,39.0982726354814,7.545932,,,10.72344522504,0,0,0.96687667136,2.26178484928,30,5,7.769,11.05152922504,7.874016,0.3131716,0.96687667136,0,0,1.11847,11.4, -1.9, -0.4,0,0,1024,1024,1085,1024,0,0,9,0,10,0,0,74,3.912,3.883,0,0,0,0,5.937,118.58,10.72344522504,7.545932,11,AutoTakeoff,
10600,2026-03-02 07:58:31,22.309140341345,39.0982726897106,7.217848,,,10.39536122504,0,0,1.04828743512,2.34630584936,30,5,7.769,11.05152922504,7.874016,0.3131716,1.04828743512,0,0,2.460634,11.3, -1.7, -0.9,0,0,1024,1024,1024,1024,0,0,0,0,10,0,0,74,3.912,3.883,0,0,0,0,5.937,118.58,10.39536122504,7.217848,6,P-GPS,"Land aircraft and remove gimbal protector to ensure flight safety (Code: 1612000B)"
10800,2026-03-02 07:58:31,22.3091401306988,39.0982727504121,6.233596,,,9.41110922504,0,0,1.12444557404,2.42584325348,30,5,7.769,11.05152922504,7.874016,0.3131716,1.12444557404,0,0,1.565858,10.9, -5.3, -1,0,0,1024,1024,1024,1024,0,0,0,0,10,0,0,74,3.912,3.883,0,0,0,0,5.937,118.58,9.41110922504,6.233596,6,P-GPS,"Home Point updated (Code: 3000001)"
11000,2026-03-02 07:58:31,22.3091400803501,39.0982728059852,5.905512,,,9.08302522504,0,0,1.14256565336,2.452099816,30,5,7.826,11.05152922504,7.874016,0.3131716,1.14256565336,0,0,0.447388,10.3, -1.2, -0.8,0,0,1024,1024,990,1024,0,0,-5,0,10,0,0,74,3.898,3.862,0,0,0,0,5.043,118.76,9.08302522504,5.905512,6,P-GPS,
11200,2026-03-02 07:58:32,22.3091399740969,39.0982728097706,5.905512,,,9.08302522504,0.328084,0,1.18132549712,2.49088590648,30,5,7.826,11.05152922504,7.874016,0.3131716,1.18132549712,0,0,0,10, -1.6, -0.4,0,0,1024,1024,868,1024,0,0,-24,0,10,0,0,74,3.898,3.862,0,0,0,0,5.043,118.76,9.08302522504,5.905512,6,P-GPS,
11400,2026-03-02 07:58:32,22.3091397792504,39.0982727577195,5.905512,,,9.08302522504,0.328084,0,1.25259846528,2.56411425528,30,5,7.826,11.05152922504,7.874016,0.3131716,1.25259846528,0,0,0,10.2, -3, 0,0,0,1024,1024,544,1024,0,0,-73,0,10,0,0,74,3.898,3.862,0,0,0,0,5.043,118.76,9.08302522504,5.905512,6,P-GPS,
11600,2026-03-02 07:58:32,22.309139549313,39.0982726923411,5.905512,,,9.08302522504,0.328084,0,1.33702104016,2.65085966488,30,5,7.826,11.05152922504,7.874016,0.3131716,1.33702104016,0,0,0.223694,10.3, -2.9, 0.1,0,0,1024,1024,1024,1024,0,0,0,0,10,0,0,74,3.898,3.862,0,0,0,0,5.043,118.76,9.08302522504,5.905512,6,P-GPS,
11800,2026-03-02 07:58:32,22.3091392956146,39.0982726159029,5.577428,,,8.75494122504,0,0.223694,1.4305610694,2.74695218764,30,5,7.826,11.05152922504,7.874016,0.3131716,1.4305610694,-0.223694,0,1.565858,10.2, -4, -0.4,0,0,1024,1024,1024,1024,0,0,0,0,10,0,0,74,3.898,3.862,0,0,0,0,5.043,118.76,8.75494122504,5.577428,6,P-GPS,
12000,2026-03-02 07:58:32,22.3091391411751,39.098272498607,5.249344,,,8.42685722504,0,0,1.48922576944,2.81581701924,30,5,7.787,11.05152922504,7.874016,0.3131716,1.48922576944,0,0,0.447388,10.3, -3.6, 0.7,0,0,1024,1024,1024,1024,0,0,0,0,10,0,0,74,3.922,3.894,0,0,0,0,6.293,118.76,8.42685722504,5.249344,6,P-GPS,
12200,2026-03-02 07:58:33,22.3091390366316,39.0982723839075,5.249344,,,8.42685722504,0,0,1.5305282642,2.87016741468,30,5,7.787,11.05152922504,7.874016,0.3131716,1.5305282642,0,0,0,10.2, -3.2, 0.7,0,0,1024,1024,1024,1024,0,0,0,0,10,0,0,74,3.922,3.894,0,0,0,0,6.293,118.76,8.42685722504,5.249344,6,P-GPS,
12400,2026-03-02 07:58:33,22.309138939501,39.0982722619712,4.92126,,,8.09877322504,0.328084,0,1.57022970904,2.92447844004,30,5,7.787,11.05152922504,7.874016,0.3131716,1.57022970904,0,0,0,10.2, -3.8, 0.3,0,0,1024,1024,1024,1024,0,0,0,0,10,0,0,74,3.922,3.894,0,0,0,0,6.293,118.76,8.09877322504,4.92126,6,P-GPS,
12600,2026-03-02 07:58:33,22.3091389051725,39.0982721251539,4.92126,,,8.09877322504,0.328084,0,1.5888451952,2.97232949144,30,5,7.787,11.05152922504,7.874016,0.3131716,1.5888451952,0,0,0,10.2, -2, 1.6,0,0,1024,1024,1024,1024,0,0,0,0,10,0,0,74,3.922,3.894,0,0,0,0,6.293,118.76,8.09877322504,4.92126,6,P-GPS,
12800,2026-03-02 07:58:33,22.3091388719063,39.0982720259164,4.92126,,,8.09877322504,0,0,1.60611553696,3.007956133,30,5,7.787,11.05152922504,7.874016,0.3131716,1.60611553696,0,0,0,10.2, -1.3, 1.7,0,0,1024,1024,1024,1024,0,0,0,0,10,0,0,74,3.922,3.894,0,0,0,0,6.293,118.76,8.09877322504,4.92126,6,P-GPS,
13000,2026-03-02 07:58:33,22.3091387921731,39.0982719835852,4.92126,,,8.09877322504,0,0,1.63721461932,3.04036755136,30,5,7.785,11.05152922504,7.874016,0.3131716,1.63721461932,0,0,0,10.2, -2, 0.8,0,0,1024,1024,1024,1024,0,0,0,0,10,0,0,74,3.909,3.878,0,0,0,0,6.188,118.76,8.09877322504,4.92126,6,P-GPS,
13200,2026-03-02 07:58:34,22.3091386807281,39.0982719820168,4.92126,,,8.09877322504,0,0,1.67736553924,3.08103028232,30,5,7.785,11.05152922504,7.874016,0.3131716,1.67736553924,0,0,0,10.2, -2.1, 0.6,0,0,1024,1024,1024,1024,0,0,0,0,10,0,0,74,3.909,3.878,0,0,0,0,6.188,118.76,8.09877322504,4.92126,6,P-GPS,
13400,2026-03-02 07:58:34,22.3091385827641,39.0982720423085,4.92126,,,8.09877322504,0,0,1.7093504484,3.12215889256,30,5,7.785,11.05152922504,7.874016,0.3131716,1.7093504484,0,0,0,10.2, -1.8, -0.7,0,0,1024,1024,1024,1024,0,0,0,0,10,0,0,74,3.909,3.878,0,0,0,0,6.188,118.76,8.09877322504,4.92126,6,P-GPS,
13600,2026-03-02 07:58:34,22.3091385037288,39.0982720780178,4.92126,,,8.09877322504,0,0,1.73606304768,3.1534121744,30,5,7.785,11.05152922504,7.874016,0.3131716,1.73606304768,0,0,0,10.2, -1.5, -0.1,0,0,1024,1024,1024,1024,0,0,0,0,10,0,0,74,3.909,3.878,0,0,0,0,6.188,118.76,8.09877322504,4.92126,6,P-GPS,
13800,2026-03-02 07:58:34,22.3091384148809,39.0982720988913,4.92126,,,8.09877322504,0,0,1.76715556836,3.18658802848,30,5,7.785,11.05152922504,7.874016,0.3131716,1.76715556836,0,0,0,10.3, -1.7, 0,0,0,1024,1024,1024,1024,0,0,0,0,10,0,0,74,3.909,3.878,0,0,0,0,6.188,118.76,8.09877322504,4.92126,6,P-GPS,
14000,2026-03-02 07:58:34,22.3091383539763,39.0982721470286,4.92126,,,8.09877322504,0,0,1.78702105456,3.21411427608,30,5,7.785,11.05152922504,7.874016,0.3131716,1.78702105456,0,0,0,10.5, -2.2, 0,0,0,1024,1024,1024,1024,0,0,0,0,10,0,0,74,3.909,3.878,0,0,0,0,6.188,118.76,8.09877322504,4.92126,6,P-GPS,
14200,2026-03-02 07:58:35,22.3091383228141,39.0982722743357,4.92126,,,8.09877322504,0,0.223694,1.7933563566,3.2585630964,30,5,7.786,11.05152922504,7.874016,0.3131716,1.7933563566,0,0.223694,0,10.3, -1.6, -1.2,0,0,1024,1024,1024,1024,0,0,0,0,10,0,0,74,3.908,3.879,0,0,0,0,5.684,118.94,8.09877322504,4.92126,6,P-GPS,
14400,2026-03-02 07:58:35,22.3091382916849,39.0982723843902,4.92126,,,8.09877322504,0,0,1.80122381092,3.297408242,30,5,7.786,11.05152922504,7.874016,0.3131716,1.80122381092,0,0,0,10.4, -1.6, -3.1,0,0,1024,1024,1024,1024,0,0,0,0,10,0,0,74,3.908,3.879,0,0,0,0,5.684,118.94,8.09877322504,4.92126,6,P-GPS,
14600,2026-03-02 07:58:35,22.3091382783367,39.09827235421,4.92126,,,8.09877322504,0,0,1.80694231504,3.3086943316,30,5,7.786,11.05152922504,7.874016,0.3131716,1.80694231504,0,0,0,10.4, -1, 0.1,0,0,1024,1024,726,1024,0,0,-45,0,10,0,0,74,3.908,3.879,0,0,0,0,5.684,118.94,8.09877322504,4.92126,6,P-GPS,
14800,2026-03-02 07:58:35,22.3091382285031,39.0982722913972,4.92126,,,8.09877322504,0,0,1.82701121332,3.3366470884,31,5,7.786,11.05152922504,7.874016,0.3131716,1.82701121332,0,0,0,10.2, -2.9, -0.6,0,0,1024,1024,1108,1024,0,0,13,0,10,0,0,74,3.908,3.879,0,0,0,0,5.684,118.94,8.09877322504,4.92126,6,P-GPS,
15000,2026-03-02 07:58:35,22.3091381826258,39.0982721785969,4.92126,,,8.09877322504,0,0,1.84775924548,3.3782153312,31,5,7.786,11.05152922504,7.874016,0.3131716,1.84775924548,0,0,0.447388,10.3, -2.6, 2.1,0,0,1024,1024,1024,1024,0,0,0,0,10,0,0,74,3.908,3.879,0,0,0,0,5.684,118.94,8.09877322504,4.92126,6,P-GPS,
15200,2026-03-02 07:58:36,22.3091381582412,39.0982721057331,4.593176,,,7.77068922504,0,0,1.85963588628,3.404363626,31,5,7.782,11.05152922504,7.874016,0.3131716,1.85963588628,0,0,0.223694,10.1, -3.1, 0.7,0,0,1024,1024,1024,1024,0,0,0,0,10,0,0,74,3.907,3.875,0,0,0,0,5.598,118.94,7.77068922504,4.593176,6,P-GPS,
15400,2026-03-02 07:58:36,22.3091381747619,39.0982720318831,4.593176,,,7.77068922504,0,0,1.85707683108,3.4300197948,31,5,7.782,11.05152922504,7.874016,0.3131716,1.85963588628,0,0,0,10.2, -2.4, 0,0,0,1024,1024,1024,1024,0,0,0,0,10,0,0,74,3.907,3.875,0,0,0,0,5.598,118.94,7.77068922504,4.593176,6,P-GPS,
15600,2026-03-02 07:58:36,22.3091381930218,39.0982718869195,4.593176,,,7.77068922504,0,0,1.85817263164,3.4793964368,31,5,7.782,11.05152922504,7.874016,0.3131716,1.85963588628,0,0,0,10.2, -2.2, 1.8,0,0,1024,1024,1024,1024,0,0,0,0,10,0,0,74,3.907,3.875,0,0,0,0,5.598,118.94,7.77068922504,4.593176,6,P-GPS,
15800,2026-03-02 07:58:36,22.3091381864887,39.0982717598218,4.593176,,,7.77068922504,0,0,1.86828089968,3.5223754408,31,5,7.782,11.05152922504,7.874016,0.3131716,1.86828089968,0,0,0,10.2, -2.4, 2,0,0,1024,1024,1024,1024,0,0,0,0,10,0,0,74,3.907,3.875,0,0,0,0,5.598,118.94,7.77068922504,4.593176,6,P-GPS,
16000,2026-03-02 07:58:36,22.3091381607548,39.0982717061276,4.593176,,,7.77068922504,0,0,1.88104008644,3.5427822656,31,5,7.782,11.05152922504,7.874016,0.3131716,1.88104008644,0,0,0,10.3, -2.6, 1.4,0,0,1024,1024,1024,1024,0,0,0,0,10,0,0,74,3.907,3.875,0,0,0,0,5.598,118.94,7.77068922504,4.593176,6,P-GPS,
16200,2026-03-02 07:58:37,22.3091381690487,39.0982717439271,4.593176,,,7.77068922504,0,0,1.8755578028,3.5559056256,30,5,7.78,11.05152922504,7.874016,0.3131716,1.88104008644,0,0,0,10.2, -1.9, 0.5,0,0,1024,1024,1024,1024,0,0,0,0,10,0,0,74,3.904,3.874,0,0,0,0,5.897,119.12,7.77068922504,4.593176,6,P-GPS,
16400,2026-03-02 07:58:37,22.3091381895091,39.0982718114021,4.593176,,,7.77068922504,0,0,1.86393378668,3.5798557576,30,5,7.78,11.05152922504,7.874016,0.3131716,1.88104008644,0,0,0,10.2, -2.2, 0,0,0,1024,1024,1024,1024,0,0,0,0,10,0,0,74,3.904,3.874,0,0,0,0,5.897,119.12,7.77068922504,4.593176,6,P-GPS,
16600,2026-03-02 07:58:37,22.3091382135751,39.0982719011045,4.593176,,,7.77068922504,0,0,1.84997053164,3.61138463,30,5,7.78,11.05152922504,7.874016,0.3131716,1.88104008644,0,0,0,10.2, -1.5, 0,0,0,1024,1024,1024,1024,0,0,0,0,10,0,0,74,3.904,3.874,0,0,0,0,5.897,119.12,7.77068922504,4.593176,6,P-GPS,
16800,2026-03-02 07:58:37,22.3091382347305,39.0982720284204,4.593176,,,7.77068922504,0,0,1.8355971716,3.6550526104,30,5,7.78,11.05152922504,7.874016,0.3131716,1.88104008644,0,0,0,10.2, -0.4, -2.1,0,0,1024,1024,1024,1024,0,0,0,0,10,0,0,74,3.904,3.874,0,0,0,0,5.897,119.12,7.77068922504,4.593176,6,P-GPS,
17000,2026-03-02 07:58:37,22.3091381978378,39.0982720586405,4.593176,,,7.77068922504,0,0,1.84746396988,3.6719489364,30,5,7.78,11.05152922504,7.874016,0.3131716,1.88104008644,0,0,0,10.3, -2.2, -1.2,0,0,1024,1024,1024,1024,0,0,0,0,10,0,0,74,3.904,3.874,0,0,0,0,5.897,119.12,7.77068922504,4.593176,6,P-GPS,
17200,2026-03-02 07:58:38,22.3091381730974,39.0982720339516,4.593176,,,7.77068922504,0,0,1.8575787996,3.684219278,30,5,7.77,11.05152922504,7.874016,0.3131716,1.88104008644,0,0,0,10.2, -2.8, -0.4,0,0,1024,1024,1024,1024,0,0,0,0,10,0,0,73,3.902,3.87,0,0,0,0,6.129,119.12,7.77068922504,4.593176,6,P-GPS,
17400,2026-03-02 07:58:38,22.3091382116272,39.0982720208065,4.593176,,,7.77068922504,0,0,1.84431108264,3.6989502496,31,5,7.77,11.05152922504,7.874016,0.3131716,1.88104008644,0,0,0,10.2, -2.3, -0.5,0,0,1024,1024,1024,1024,0,0,0,0,10,0,0,73,3.902,3.87,0,0,0,0,6.129,119.12,7.77068922504,4.593176,6,P-GPS,
17600,2026-03-02 07:58:38,22.3091382682735,39.0982720148098,4.593176,,,7.77068922504,0,0,1.82417328672,3.7197179668,31,5,7.77,11.05152922504,7.874016,0.3131716,1.88104008644,0,0,0,10.2, -1.4, 0,0,0,1024,1024,1024,1024,0,0,0,0,10,0,0,73,3.902,3.87,0,0,0,0,6.129,119.12,7.77068922504,4.593176,6,P-GPS,
17800,2026-03-02 07:58:38,22.3091383186305,39.0982720144703,4.593176,,,7.77068922504,0,0,1.80602367984,3.7380906708,31,5,7.77,11.05152922504,7.874016,0.3131716,1.88104008644,0,0,0,10.1, -1, -1.1,0,0,1024,1024,1024,1024,0,0,0,0,10,0,0,73,3.902,3.87,0,0,0,0,6.129,119.12,7.77068922504,4.593176,6,P-GPS,
18000,2026-03-02 07:58:38,22.3091383624453,39.0982719481178,4.593176,,,7.77068922504,0,0,1.79377302328,3.7656169184,31,5,7.77,11.05152922504,7.874016,0.3131716,1.88104008644,0,0,0,10.2, -1.4, 0.7,0,0,1024,1024,1024,1024,0,0,0,0,10,0,0,73,3.902,3.87,0,0,0,0,6.129,119.12,7.77068922504,4.593176,6,P-GPS,
18200,2026-03-02 07:58:39,22.309138392184,39.0982719123182,4.593176,,,7.77068922504,0,0,1.78511160568,3.7818570764,31,5,7.77,11.05152922504,7.874016,0.3131716,1.88104008644,0,0,0,10.2, -0.4, 0.8,0,0,1024,1024,1024,1024,0,0,0,0,10,0,0,73,3.901,3.871,0,0,0,0,5.969,119.3,7.77068922504,4.593176,6,P-GPS,
18400,2026-03-02 07:58:39,22.3091383699004,39.0982719424368,4.593176,,,7.77068922504,0,0,1.79140753764,3.7948820112,31,5,7.77,11.05152922504,7.874016,0.3131716,1.88104008644,0,0,0,10.2, -1.7, -1.1,0,0,1024,1024,1024,1024,0,0,0,0,10,0,0,73,3.901,3.871,0,0,0,0,5.969,119.3,7.77068922504,4.593176,6,P-GPS,
18600,2026-03-02 07:58:39,22.3091383704541,39.0982719332004,4.593176,,,7.77068922504,0,0,1.79172577912,3.7979988092,31,5,7.77,11.05152922504,7.874016,0.3131716,1.88104008644,0,0,0,10.3, -1.8, 0,0,0,1024,1024,1024,1024,0,0,0,0,10,0,0,73,3.901,3.871,0,0,0,0,5.969,119.3,7.77068922504,4.593176,6,P-GPS,
18800,2026-03-02 07:58:39,22.3091384108659,39.0982719408235,4.593176,,,7.77068922504,0,0,1.77676186788,3.8129594396,31,5,7.77,11.05152922504,7.874016,0.3131716,1.88104008644,0,0,0,10.3, -1.9, -0.2,0,0,1024,1024,1024,1024,0,0,0,0,10,0,0,73,3.901,3.871,0,0,0,0,5.969,119.3,7.77068922504,4.593176,6,P-GPS,
19000,2026-03-02 07:58:39,22.3091384740873,39.0982719466984,4.593176,,,7.77068922504,0,0,1.75368772016,3.83612217,30,5,7.77,11.05152922504,7.874016,0.3131716,1.88104008644,0,0,0,10.2, -1.6, -0.3,0,0,1024,1024,1024,1024,0,0,0,0,10,0,0,73,3.901,3.871,0,0,0,0,5.969,119.3,7.77068922504,4.593176,6,P-GPS,
19200,2026-03-02 07:58:40,22.3091385388735,39.098271893423,4.593176,,,7.77068922504,0,0,1.73355648592,3.865813772,30,5,7.772,11.05152922504,7.874016,0.3131716,1.88104008644,0,0,0,10.2, -1.8, 1.2,0,0,1024,1024,1024,1024,0,0,0,0,10,0,0,73,3.902,3.869,0,0,0,0,5.883,119.48,7.77068922504,4.593176,6,P-GPS,
19400,2026-03-02 07:58:40,22.3091386097651,39.0982718281788,4.593176,,,7.77068922504,0,0,1.71230648524,3.8998032744,30,5,7.772,11.05152922504,7.874016,0.3131716,1.88104008644,0,0,0,10.1, -1.6, 1.9,0,0,1024,1024,1024,1024,0,0,0,0,10,0,0,73,3.902,3.869,0,0,0,0,5.883,119.48,7.77068922504,4.593176,6,P-GPS,
19600,2026-03-02 07:58:40,22.3091386726492,39.0982718073001,4.593176,,,7.77068922504,0,0,1.69122708824,3.9237862148,30,5,7.772,11.05152922504,7.874016,0.3131716,1.88104008644,0,0,0,10.2, -1, 1.1,0,0,1024,1024,1024,1024,0,0,0,0,10,0,0,73,3.902,3.869,0,0,0,0,5.883,119.48,7.77068922504,4.593176,6,P-GPS,
19800,2026-03-02 07:58:40,22.3091386992272,39.0982718058779,4.593176,,,7.77068922504,0,0,1.68183076248,3.9334975012,30,5,7.772,11.05152922504,7.874016,0.3131716,1.88104008644,0,0,0,10.2, -1.6, 0,0,0,1024,1024,1024,1024,0,0,0,0,10,0,0,73,3.902,3.869,0,0,0,0,5.883,119.48,7.77068922504,4.593176,6,P-GPS,
20000,2026-03-02 07:58:40,22.3091387054664,39.0982718027699,4.593176,,,7.77068922504,0,0,1.67981632672,3.936023748,30,5,7.772,11.05152922504,7.874016,0.3131716,1.88104008644,0,0,0,10.3, -2, 1.5,0,0,1024,1024,1024,1024,0,0,0,0,10,0,0,73,3.902,3.869,0,0,0,0,5.883,119.48,7.77068922504,4.593176,6,P-GPS,
20200,2026-03-02 07:58:41,22.3091387293233,39.0982718544732,4.593176,,,7.77068922504,0,0,1.66779204812,3.9555119376,31,5,7.768,11.05152922504,7.874016,0.3131716,1.88104008644,0,0,0,10.3, -1.7, 0,0,0,1024,1024,1024,1024,0,0,0,0,10,0,0,73,3.899,3.866,0,0,0,0,5.814,119.48,7.77068922504,4.593176,6,P-GPS,
20400,2026-03-02 07:58:41,22.3091387657649,39.0982718734987,4.593176,,,7.77068922504,0,0,1.65349742824,3.9702757176,31,5,7.768,11.05152922504,7.874016,0.3131716,1.88104008644,0,0,0,10.4, -1.1, -0.3,0,0,1024,1024,1024,1024,0,0,0,0,10,0,0,73,3.899,3.866,0,0,0,0,5.814,119.48,7.77068922504,4.593176,6,P-GPS,
20600,2026-03-02 07:58:41,22.3091387771619,39.0982718837823,4.593176,,,7.77068922504,0,0,1.64875005276,3.9756891036,31,5,7.768,11.05152922504,7.874016,0.3131716,1.88104008644,0,0,0,10.3, -0.8, 1.6,0,0,1024,1024,1024,1024,0,0,0,0,10,0,0,73,3.899,3.866,0,0,0,0,5.814,119.48,7.77068922504,4.593176,6,P-GPS,
20800,2026-03-02 07:58:41,22.3091387169451,39.0982720019029,4.593176,,,7.77068922504,0,0,1.66321199548,4.0212271628,31,5,7.768,11.05152922504,7.874016,0.3131716,1.88104008644,0,0,0,10.3, -1.9, -1.5,0,0,1024,1024,1024,1024,0,0,0,0,10,0,0,73,3.899,3.866,0,0,0,0,5.814,119.48,7.77068922504,4.593176,6,P-GPS,
21000,2026-03-02 07:58:42,22.3091386666585,39.0982720594204,4.593176,,,7.77068922504,0,0,1.67821855764,4.0479332004,31,5,7.768,11.05152922504,7.874016,0.3131716,1.88104008644,0,0,0,10.3, -2.2, -0.9,0,0,1024,1024,1024,1024,0,0,0,0,10,0,0,73,3.899,3.866,0,0,0,0,5.814,119.48,7.77068922504,4.593176,6,P-GPS,
21200,2026-03-02 07:58:42,22.3091386608589,39.0982720712901,4.593176,,,7.77068922504,0,0,1.67969821648,4.0524607596,31,5,7.765,11.05152922504,7.874016,0.3131716,1.88104008644,0,0,0,10.2, -2, -0.1,0,0,1024,1024,1024,1024,0,0,0,0,10,0,0,73,3.899,3.867,0,0,0,0,5.893,119.66,7.77068922504,4.593176,6,P-GPS,
21400,2026-03-02 07:58:42,22.3091386749858,39.0982720669804,4.593176,,,7.77068922504,0,0,1.67482616908,4.0578085288,31,5,7.765,11.05152922504,7.874016,0.3131716,1.88104008644,0,0,0,10.2, -1.7, 0,0,0,1024,1024,1024,1024,0,0,0,0,10,0,0,73,3.899,3.867,0,0,0,0,5.893,119.66,7.77068922504,4.593176,6,P-GPS,
21600,2026-03-02 07:58:42,22.3091386948323,39.0982720527947,4.593176,,,7.77068922504,0,0,1.66840884604,4.0665027548,31,5,7.765,11.05152922504,7.874016,0.3131716,1.88104008644,0,0,0,10.3, -1.3, 0.5,0,0,1024,1024,1024,1024,0,0,0,0,10,0,0,73,3.899,3.867,0,0,0,0,5.893,119.66,7.77068922504,4.593176,6,P-GPS,
21800,2026-03-02 07:58:42,22.3091386814266,39.0982721036533,4.593176,,,7.77068922504,0,0,1.67065950228,4.0843505244,31,5,7.765,11.05152922504,7.874016,0.3131716,1.88104008644,0,0,0,10.2, -1.6, -0.8,0,0,1024,1024,1024,1024,0,0,0,0,10,0,0,73,3.899,3.867,0,0,0,0,5.893,119.66,7.77068922504,4.593176,6,P-GPS,
22000,2026-03-02 07:58:42,22.3091386497906,39.0982721745762,4.593176,,,7.77068922504,0,0,1.67879598548,4.1109253284,30,5,7.765,11.05152922504,7.874016,0.3131716,1.88104008644,0,0,0,10.3, -2.1, -1.6,0,0,1024,1024,1024,1024,0,0,0,0,10,0,0,73,3.899,3.867,0,0,0,0,5.893,119.66,7.77068922504,4.593176,6,P-GPS,
22200,2026-03-02 07:58:43,22.3091386231989,39.0982722268033,4.593176,,,7.77068922504,0,0,1.6862205264,4.1310368776,30,5,7.765,11.05152922504,7.874016,0.3131716,1.88104008644,0,0,0,10.3, -2.1, -1.6,0,0,1024,1024,1024,1024,0,0,0,0,10,0,0,73,3.899,3.867,0,0,0,0,5.893,119.66,7.77068922504,4.593176,6,P-GPS,
22400,2026-03-02 07:58:43,22.3091385810188,39.0982722380755,4.593176,,,7.77068922504,0,0,1.70105648488,4.1468833348,30,5,7.765,11.05152922504,7.874016,0.3131716,1.88104008644,0,0,0,10.3, -3.3, 0,0,0,1024,1024,1024,1024,0,0,0,0,10,0,0,73,3.899,3.867,0,0,0,0,5.771,119.66,7.77068922504,4.593176,6,P-GPS,
22600,2026-03-02 07:58:43,22.3091385468987,39.0982722761834,4.593176,,,7.77068922504,0,0,1.71198824376,4.1647967212,30,5,7.765,11.05152922504,7.874016,0.3131716,1.88104008644,0,0,0,10.3, -2.6, -1.6,0,0,1024,1024,1024,1024,0,0,0,0,10,0,0,73,3.899,3.867,0,0,0,0,5.771,119.66,7.77068922504,4.593176,6,P-GPS,
22800,2026-03-02 07:58:43,22.3091385514815,39.0982722962394,4.593176,,,7.77068922504,0,0,1.70960963476,4.1717849104,30,5,7.765,11.05152922504,7.874016,0.3131716,1.88104008644,0,0,0,10.3, -2.6, -1.4,0,0,1024,1024,1024,1024,0,0,0,0,10,0,0,73,3.899,3.867,0,0,0,0,5.771,119.66,7.77068922504,4.593176,6,P-GPS,
23000,2026-03-02 07:58:43,22.3091385964603,39.0982723014332,4.593176,,,7.77068922504,0,0,1.69310700956,4.1882875356,30,5,7.765,11.05152922504,7.874016,0.3131716,1.88104008644,0,0,0,10.2, -1.6, -1.5,0,0,1024,1024,1024,1024,0,0,0,0,10,0,0,73,3.899,3.867,0,0,0,0,5.771,119.66,7.77068922504,4.593176,6,P-GPS,
23200,2026-03-02 07:58:44,22.309138615305,39.0982722797167,4.593176,,,7.77068922504,0,0,1.68704729808,4.198326906,31,5,7.765,11.05152922504,7.874016,0.3131716,1.88104008644,0,0,0,10.3, -1.6, -2.4,0,0,1024,1024,1024,1024,0,0,0,0,10,0,0,73,3.899,3.867,0,0,0,0,5.771,119.66,7.77068922504,4.593176,6,P-GPS,
23400,2026-03-02 07:58:44,22.3091385775273,39.0982721814996,4.593176,,,7.77068922504,0,0,1.704642443,4.2342192956,31,5,7.76,11.05152922504,7.874016,0.3131716,1.88104008644,0,0,0,10.2, -2.6, 0.5,0,0,1024,1024,1024,1024,0,0,0,0,10,0,0,73,3.897,3.863,0,0,0,0,5.763,119.66,7.77068922504,4.593176,6,P-GPS,
23600,2026-03-02 07:58:44,22.3091385340763,39.0982721206989,4.593176,,,7.77068922504,0,0,1.72306764044,4.26017074,31,5,7.76,11.05152922504,7.874016,0.3131716,1.88104008644,0,0,0,10.2, -2.3, -1.6,0,0,1024,1024,1024,1024,0,0,0,0,10,0,0,73,3.897,3.863,0,0,0,0,5.763,119.66,7.77068922504,4.593176,6,P-GPS,
23800,2026-03-02 07:58:44,22.3091385096347,39.0982720335204,4.593176,,,7.77068922504,0,0,1.7361713154,4.2909122108,31,5,7.76,11.05152922504,7.874016,0.3131716,1.88104008644,0,0,0,10.4, -2.7, 0.7,0,0,1024,1024,1024,1024,0,0,0,0,10,0,0,73,3.897,3.863,0,0,0,0,5.763,119.66,7.77068922504,4.593176,6,P-GPS,
24000,2026-03-02 07:58:44,22.3091385227398,39.0982719986665,4.593176,,,7.77068922504,0,0,1.73329401872,4.3036090616,31,5,7.76,11.05152922504,7.874016,0.3131716,1.88104008644,0,0,0,10.2, -3.3, -0.2,0,0,1024,1024,1024,1024,0,0,0,0,10,0,0,73,3.897,3.863,0,0,0,0,5.763,119.66,7.77068922504,4.593176,6,P-GPS,
24200,2026-03-02 07:58:45,22.3091385907745,39.0982719965034,4.593176,,,7.77068922504,0,0,1.70891737752,4.3284450204,31,5,7.76,11.05152922504,7.874016,0.3131716,1.88104008644,0,0,0,10.2, -2.4, -1.7,0,0,1024,1024,1024,1024,0,0,0,0,10,0,0,73,3.897,3.863,0,0,0,0,5.763,119.66,7.77068922504,4.593176,6,P-GPS,
24400,2026-03-02 07:58:45,22.3091386786632,39.0982719314106,4.593176,,,7.77068922504,0,0,1.68107945012,4.3673229744,31,5,7.762,11.05152922504,7.874016,0.3131716,1.88104008644,0,0,0,10.3, -2.2, 0.5,0,0,1024,1024,1024,1024,0,0,0,0,10,0,0,73,3.895,3.862,0,0,0,0,5.882,119.84,7.77068922504,4.593176,6,P-GPS,
24600,2026-03-02 07:58:45,22.3091387569861,39.0982718690394,4.593176,,,7.77068922504,0,0,1.65693246772,4.4028216632,31,5,7.762,11.05152922504,7.874016,0.3131716,1.88104008644,0,0,0,10.2, -1.7, 0.1,0,0,1024,1024,1024,1024,0,0,0,0,10,0,0,73,3.895,3.862,0,0,0,0,5.882,119.84,7.77068922504,4.593176,6,P-GPS,
24800,2026-03-02 07:58:45,22.3091388218438,39.0982718429441,4.593176,,,7.77068922504,0,0,1.63548561664,4.4280513228,31,5,7.762,11.05152922504,7.874016,0.3131716,1.88104008644,0,0,0,10.2, -2.1, -0.6,0,0,1024,1024,1024,1024,0,0,0,0,10,0,0,73,3.895,3.862,0,0,0,0,5.882,119.84,7.77068922504,4.593176,6,P-GPS,
25000,2026-03-02 07:58:45,22.3091388921389,39.0982718313683,4.593176,,,7.77068922504,0,0,1.61118115392,4.4540027672,31,5,7.762,11.05152922504,7.874016,0.3131716,1.88104008644,0,0,0,10.3, -2.2, -0.8,0,0,1024,1024,1024,1024,0,0,0,0,10,0,0,73,3.895,3.862,0,0,0,0,5.882,119.84,7.77068922504,4.593176,6,P-GPS,
25200,2026-03-02 07:58:46,22.3091389998069,39.0982717967549,4.593176,,,7.77068922504,0,0,1.57530188768,4.4949804588,30,5,7.762,11.05152922504,7.874016,0.3131716,1.88104008644,0,0,0,10.3, -1, 0.8,0,0,1024,1024,1024,1024,0,0,0,0,10,0,0,73,3.895,3.862,0,0,0,0,5.882,119.84,7.77068922504,4.593176,6,P-GPS,
25400,2026-03-02 07:58:46,22.309139040434,39.0982717468342,4.593176,,,7.77068922504,0,0,1.56466868524,4.5174214044,30,5,7.761,11.05152922504,7.874016,0.3131716,1.88104008644,0,0,0,10.2, -1.9, 0,0,0,1024,1024,1024,1024,0,0,0,0,10,0,0,73,3.895,3.864,0,0,0,0,5.801,119.84,7.77068922504,4.593176,6,P-GPS,
25600,2026-03-02 07:58:46,22.3091390380858,39.098271671649,4.593176,,,7.77068922504,0,0,1.57158141512,4.542815106,30,5,7.761,11.05152922504,7.874016,0.3131716,1.88104008644,0,0,0,10.2, -2.6, 0,0,0,1024,1024,1024,1024,0,0,0,0,10,0,0,73,3.895,3.864,0,0,0,0,5.801,119.84,7.77068922504,4.593176,6,P-GPS,
25800,2026-03-02 07:58:46,22.3091390592969,39.0982715945311,4.593176,,,7.77068922504,0,0,1.5707513626,4.5699804612,30,5,7.761,11.05152922504,7.874016,0.3131716,1.88104008644,0,0,0,10.2, -2.5, 1,0,0,1024,1024,1024,1024,0,0,0,0,10,0,0,73,3.895,3.864,0,0,0,0,5.801,119.84,7.77068922504,4.593176,6,P-GPS,
26000,2026-03-02 07:58:46,22.3091391032062,39.0982715547791,4.593176,,,7.77068922504,0,0,1.55893377692,4.590879412,30,5,7.761,11.05152922504,7.874016,0.3131716,1.88104008644,0,0,0,10.2, -2.5, 1,0,0,1024,1024,1024,1024,0,0,0,0,10,0,0,73,3.895,3.864,0,0,0,0,5.801,119.84,7.77068922504,4.593176,6,P-GPS,
26200,2026-03-02 07:58:47,22.3091391610786,39.0982715277228,4.593176,,,7.77068922504,0,0,1.5412073984,4.6138781004,30,5,7.761,11.05152922504,7.874016,0.3131716,1.88104008644,0,0,0,10.1, -1.9, 1.4,0,0,1024,1024,1024,1024,0,0,0,0,10,0,0,73,3.895,3.864,0,0,0,0,5.801,119.84,7.77068922504,4.593176,6,P-GPS,
26400,2026-03-02 07:58:47,22.3091392187146,39.0982715244262,4.593176,,,7.77068922504,0,0,1.5213747206,4.6349410932,31,5,7.757,11.05152922504,7.874016,0.3131716,1.88104008644,0,0,0,10.2, -1.5, 0.5,0,0,1024,1024,1024,1024,0,0,0,0,10,0,0,73,3.893,3.859,0,0,0,0,5.741,120.02,7.77068922504,4.593176,6,P-GPS,
26600,2026-03-02 07:58:47,22.3091392481438,39.0982715388428,4.593176,,,7.77068922504,0,0,1.50969164936,4.6467193088,31,5,7.757,11.05152922504,7.874016,0.3131716,1.88104008644,0,0,0,10.1, -1.4, 0.3,0,0,1024,1024,1024,1024,0,0,0,0,10,0,0,73,3.893,3.859,0,0,0,0,5.741,120.02,7.77068922504,4.593176,6,P-GPS,
26800,2026-03-02 07:58:47,22.3091392652502,39.098271548473,4.593176,,,7.77068922504,0,0,1.50277891948,4.6537731148,31,5,7.757,11.05152922504,7.874016,0.3131716,1.88104008644,0,0,0,10.2, -1.8, -0.2,0,0,1024,1024,1024,1024,0,0,0,0,10,0,0,73,3.893,3.859,0,0,0,0,5.741,120.02,7.77068922504,4.593176,6,P-GPS,
27000,2026-03-02 07:58:47,22.3091393240703,39.0982715200751,4.593176,,,7.77068922504,0,0,1.4850394176,4.6772639292,31,5,7.757,11.05152922504,7.874016,0.3131716,1.88104008644,0,0,0,10.3, -1.3, 0.8,0,0,1024,1024,1024,1024,0,0,0,0,10,0,0,73,3.893,3.859,0,0,0,0,5.741,120.02,7.77068922504,4.593176,6,P-GPS,
27200,2026-03-02 07:58:48,22.3091394028775,39.0982714971835,4.593176,,,7.77068922504,0,0,1.45994755328,4.707021148,31,5,7.757,11.05152922504,7.874016,0.3131716,1.88104008644,0,0,0,10.3, -0.6, 1.4,0,0,1024,1024,1024,1024,0,0,0,0,10,0,0,73,3.893,3.859,0,0,0,0,5.741,120.02,7.77068922504,4.593176,6,P-GPS,
27400,2026-03-02 07:58:48,22.3091394525366,39.0982714787496,4.593176,,,7.77068922504,0,0,1.4446522772,4.7261812536,31,5,7.747,11.05152922504,7.874016,0.3131716,1.88104008644,0,0,0,10.3, -1, 0.8,0,0,1024,1024,1024,1024,0,0,0,0,10,0,0,73,3.891,3.857,0,0,0,0,6.3,120.2,7.77068922504,4.593176,6,P-GPS,
27600,2026-03-02 07:58:48,22.3091394869716,39.0982714552749,4.92126,,,8.09877322504,0,0,1.43525923228,4.7410434588,31,5,7.747,11.05152922504,7.874016,0.3131716,1.88104008644,0,0,0,10.2, -2.5, 1.8,0,0,1024,1024,1024,1024,0,0,0,0,10,0,0,73,3.891,3.857,0,0,0,0,6.3,120.2,8.09877322504,4.92126,6,P-GPS,
27800,2026-03-02 07:58:48,22.3091395608314,39.0982714890286,4.92126,,,8.09877322504,0,0,1.40607944132,4.7703085516,31,5,7.747,11.05152922504,7.874016,0.3131716,1.88104008644,0,0,0,10.2, -1.3, 1.5,0,0,1024,1024,1024,1024,0,0,0,0,10,0,0,73,3.891,3.857,0,0,0,0,6.3,120.2,8.09877322504,4.92126,6,P-GPS,
28000,2026-03-02 07:58:48,22.30913964195,39.0982715478517,4.92126,,,8.09877322504,0,0,1.37171592316,4.805938474,31,5,7.747,11.05152922504,7.874016,0.3131716,1.88104008644,0,0,0,10.2, 0, 0.2,0,0,1024,1024,1024,1024,0,0,0,0,10,0,0,73,3.891,3.857,0,0,0,0,6.3,120.2,8.09877322504,4.92126,6,P-GPS,
28200,2026-03-02 07:58:49,22.3091397065842,39.0982715949594,4.92126,,,8.09877322504,0,0,1.34436027924,4.8343833568,30,5,7.747,11.05152922504,7.874016,0.3131716,1.88104008644,0,0,0,10.3, -0.2, 0.3,0,0,1024,1024,1024,1024,0,0,0,0,10,0,0,73,3.891,3.857,0,0,0,0,6.3,120.2,8.09877322504,4.92126,6,P-GPS,
28400,2026-03-02 07:58:49,22.3091397878485,39.0982716503641,4.92126,,,8.09877322504,0,0,1.31041998944,4.869422728,30,5,7.749,11.05152922504,7.874016,0.3131716,1.88104008644,0,0,0,10.2, 0.1, -0.4,0,0,1024,1024,1024,1024,0,0,0,0,10,0,0,73,3.893,3.86,0,0,0,0,5.932,120.2,8.09877322504,4.92126,6,P-GPS,
28600,2026-03-02 07:58:49,22.3091398348031,39.0982716928,4.92126,,,8.09877322504,0,0,1.28979006752,4.8917652484,30,5,7.749,11.05152922504,7.874016,0.3131716,1.88104008644,0,0,0,10.3, 0.2, 0.7,0,0,1024,1024,1024,1024,0,0,0,0,10,0,0,73,3.893,3.86,0,0,0,0,5.932,120.2,8.09877322504,4.92126,6,P-GPS,
28800,2026-03-02 07:58:49,22.3091398239214,39.0982717742184,4.92126,,,8.09877322504,0,0,1.28575135348,4.9195211548,30,5,7.749,11.05152922504,7.874016,0.3131716,1.88104008644,0,0,0,10.3, -0.1, 0,0,0,1024,1024,1024,1024,0,0,0,0,10,0,0,73,3.893,3.86,0,0,0,0,5.932,120.2,8.09877322504,4.92126,6,P-GPS,
29000,2026-03-02 07:58:49,22.3091397758563,39.098271879468,4.92126,,,8.09877322504,0,0,1.2934219574,4.959153702,30,5,7.749,11.05152922504,7.874016,0.3131716,1.88104008644,0,0,0,10.3, 0.1, -0.6,0,0,1024,1024,1024,1024,0,0,0,0,10,0,0,73,3.893,3.86,0,0,0,0,5.932,120.2,8.09877322504,4.92126,6,P-GPS,
29200,2026-03-02 07:58:50,22.3091396941599,39.0982719897383,4.92126,,,8.09877322504,0,0,1.31387143312,5.0068243072,30,5,7.749,11.05152922504,7.874016,0.3131716,1.88104008644,0,0,0,10.2, -0.4, -1.2,0,0,1024,1024,1024,1024,0,0,0,0,10,0,0,73,3.893,3.86,0,0,0,0,5.932,120.2,8.09877322504,4.92126,6,P-GPS,
29400,2026-03-02 07:58:50,22.3091395967549,39.0982720661562,4.92126,,,8.09877322504,0,0,1.34346789076,5.0507547548,31,5,7.754,11.05152922504,7.874016,0.3131716,1.88104008644,0,0,0,10.3, -0.7, -0.5,0,0,1024,1024,1024,1024,0,0,0,0,10,0,0,73,3.892,3.861,0,0,0,0,5.603,120.38,8.09877322504,4.92126,6,P-GPS,
29600,2026-03-02 07:58:50,22.3091395022117,39.0982721412838,4.92126,,,8.09877322504,0,0,1.37287405968,5.0935697168,31,5,7.754,11.05152922504,7.874016,0.3131716,1.88104008644,0,0,0,10.2, -1.4, -0.3,0,0,1024,1024,1024,1024,0,0,0,0,10,0,0,73,3.892,3.861,0,0,0,0,5.603,120.38,8.09877322504,4.92126,6,P-GPS,
29800,2026-03-02 07:58:50,22.3091394467185,39.0982722261039,4.92126,,,8.09877322504,0,0,1.3884022754,5.1286418964,31,5,7.754,11.05152922504,7.874016,0.3131716,1.88104008644,0,0,0,10.3, -0.8, -1,0,0,1024,1024,1024,1024,0,0,0,0,10,0,0,73,3.892,3.861,0,0,0,0,5.603,120.38,8.09877322504,4.92126,6,P-GPS,
30000,2026-03-02 07:58:50,22.309139404789,39.0982723006579,4.92126,,,8.09877322504,0,0,1.40015096344,5.1580710312,31,5,7.754,11.05152922504,7.874016,0.3131716,1.88104008644,0,0,0,10.2, -1.4, -0.6,0,0,1024,1024,1024,1024,0,0,0,0,10,0,0,73,3.892,3.861,0,0,0,0,5.603,120.38,8.09877322504,4.92126,6,P-GPS,
30200,2026-03-02 07:58:51,22.3091393783422,39.0982723933873,4.92126,,,8.09877322504,0,0,1.40615818148,5.1908466228,31,5,7.754,11.05152922504,7.874016,0.3131716,1.88104008644,0,0,0,10.3, -0.9, -1.3,0,0,1024,1024,1024,1024,0,0,0,0,10,0,0,73,3.892,3.861,0,0,0,0,5.603,120.38,8.09877322504,4.92126,6,P-GPS,
30400,2026-03-02 07:58:51,22.309139371306,39.0982724775944,4.92126,,,8.09877322504,0,0,1.40607287964,5.2193571224,31,5,7.748,11.05152922504,7.874016,0.3131716,1.88104008644,0,0,0,10.2, -0.7, -2.1,0,0,1024,1024,1024,1024,0,0,0,0,10,0,0,72,3.891,3.858,0,0,0,0,5.849,120.38,8.09877322504,4.92126,6,P-GPS,
30600,2026-03-02 07:58:51,22.3091393924263,39.0982724978023,4.92126,,,8.09877322504,0,0,1.39784125208,5.22965896,31,5,7.748,11.05152922504,7.874016,0.3131716,1.88104008644,0,0,0,10.3, -0.8, -0.8,0,0,1024,1024,1024,1024,0,0,0,0,10,0,0,72,3.891,3.858,0,0,0,0,5.849,120.38,8.09877322504,4.92126,6,P-GPS,
30800,2026-03-02 07:58:51,22.3091394173921,39.0982725143715,4.92126,,,8.09877322504,0,0,1.38833337776,5.2403544984,31,5,7.748,11.05152922504,7.874016,0.3131716,1.88104008644,0,0,0,10.4, -0.8, -0.1,0,0,1024,1024,1024,1024,0,0,0,0,10,0,0,72,3.891,3.858,0,0,0,0,5.849,120.38,8.09877322504,4.92126,6,P-GPS,
31000,2026-03-02 07:58:51,22.3091394312675,39.0982725749541,4.92126,,,8.09877322504,0,0,1.38189636968,5.2614174912,31,5,7.748,11.05152922504,7.874016,0.3131716,1.88104008644,0,0,0,10.3, -0.7, -0.9,0,0,1024,1024,1024,1024,0,0,0,0,10,0,0,72,3.891,3.858,0,0,0,0,5.849,120.38,8.09877322504,4.92126,6,P-GPS,
31200,2026-03-02 07:58:52,22.3091394512478,39.0982726451776,4.92126,,,8.09877322504,0,0,1.37338258988,5.2862206416,31,5,7.748,11.05152922504,7.874016,0.3131716,1.88104008644,0,0,0,10.3, -0.8, -1.5,0,0,1024,1024,1024,1024,0,0,0,0,10,0,0,72,3.891,3.858,0,0,0,0,5.849,120.38,8.09877322504,4.92126,6,P-GPS,
31400,2026-03-02 07:58:52,22.3091394817249,39.0982727034549,4.92126,,,8.09877322504,0,0,1.36155188084,5.3088256292,31,5,7.748,11.05152922504,7.874016,0.3131716,1.88104008644,0,0,0,10.3, -0.6, -1.2,0,0,1024,1024,1024,1024,0,0,0,0,10,0,0,72,3.891,3.858,0,0,0,0,5.849,120.38,8.09877322504,4.92126,6,P-GPS,
31600,2026-03-02 07:58:52,22.3091395167076,39.0982727574145,4.593176,,,7.77068922504,0,0,1.3483760274,5.331036916,31,5,7.747,11.05152922504,7.874016,0.3131716,1.88104008644,0,0,0,10.2, -0.8, -1.5,0,0,1024,1024,1024,1024,0,0,0,0,10,0,0,72,3.891,3.858,0,0,0,0,5.801,120.56,7.77068922504,4.593176,6,P-GPS,
31800,2026-03-02 07:58:52,22.3091395602108,39.0982728118417,4.593176,,,7.77068922504,0,0,1.33232943896,5.355315132,31,5,7.747,11.05152922504,7.874016,0.3131716,1.88104008644,0,0,0,10.3, -0.2, -1.7,0,0,1024,1024,1024,1024,0,0,0,0,10,0,0,72,3.891,3.858,0,0,0,0,5.801,120.56,7.77068922504,4.593176,6,P-GPS,
32000,2026-03-02 07:58:52,22.3091395956535,39.0982728544145,4.593176,,,7.77068922504,0,0,1.3194390186,5.374672088,31,5,7.747,11.05152922504,7.874016,0.3131716,1.88104008644,0,0,0,10.3, -0.6, -1,0,0,1024,1024,1024,1024,0,0,0,0,10,0,0,72,3.891,3.858,0,0,0,0,5.801,120.56,7.77068922504,4.593176,6,P-GPS,
32200,2026-03-02 07:58:53,22.309139620365,39.0982729038074,4.593176,,,7.77068922504,0,0,1.31066605244,5.3936025348,31,5,7.747,11.05152922504,7.874016,0.3131716,1.88104008644,0,0,0,10.3, -0.4, -1.7,0,0,1024,1024,1024,1024,0,0,0,0,10,0,0,72,3.891,3.858,0,0,0,0,5.801,120.56,7.77068922504,4.593176,6,P-GPS,
32400,2026-03-02 07:58:53,22.3091396376157,39.0982729598577,4.593176,,,7.77068922504,0,0,1.30490817824,5.413550042,31,5,7.747,11.05152922504,7.874016,0.3131716,1.88104008644,0,0,0,10.3, -0.4, -1.9,0,0,1024,1024,1024,1024,0,0,0,0,10,0,0,72,3.891,3.858,0,0,0,0,5.801,120.56,7.77068922504,4.593176,6,P-GPS,
32600,2026-03-02 07:58:53,22.3091396553745,39.0982730141052,4.593176,,,7.77068922504,0,0,1.29921592084,5.4329726148,31,5,7.744,11.05152922504,7.874016,0.3131716,1.88104008644,0,0,0,10.3, -0.3, -2.2,0,0,1024,1024,1024,1024,0,0,0,0,10,0,0,72,3.889,3.856,0,0,0,0,5.846,120.74,7.77068922504,4.593176,6,P-GPS,
32800,2026-03-02 07:58:53,22.3091396807938,39.0982730247074,4.593176,,,7.77068922504,0,0,1.29013783656,5.44291356,30,5,7.744,11.05152922504,7.874016,0.3131716,1.88104008644,0,0,0,10.3, 0, -1.7,0,0,1024,1024,1024,1024,0,0,0,0,10,0,0,72,3.889,3.856,0,0,0,0,5.846,120.74,7.77068922504,4.593176,6,P-GPS,
33000,2026-03-02 07:58:53,22.3091396975648,39.0982730254503,4.593176,,,7.77068922504,0,0,1.28404203584,5.4490487308,30,5,7.744,11.05152922504,7.874016,0.3131716,1.88104008644,0,0,0,10.3, 0, -1.2,0,0,1024,1024,1024,1024,0,0,0,0,10,0,0,72,3.889,3.856,0,0,0,0,5.846,120.74,7.77068922504,4.593176,6,P-GPS,
33200,2026-03-02 07:58:54,22.3091396785209,39.0982730516824,4.593176,,,7.77068922504,0,0,1.29147970012,5.460302012,30,5,7.744,11.05152922504,7.874016,0.3131716,1.88104008644,0,0,0,10.3, -0.2, -1.5,0,0,1024,1024,1024,1024,0,0,0,0,10,0,0,72,3.889,3.856,0,0,0,0,5.846,120.74,7.77068922504,4.593176,6,P-GPS,
33400,2026-03-02 07:58:54,22.3091396489407,39.0982730717714,4.593176,,,7.77068922504,0,0,1.3026739262,5.4730316712,30,5,7.744,11.05152922504,7.874016,0.3131716,1.88104008644,0,0,0,10.2, -0.3, -1.9,0,0,1024,1024,1024,1024,0,0,0,0,10,0,0,72,3.889,3.856,0,0,0,0,5.846,120.74,7.77068922504,4.593176,6,P-GPS,
33600,2026-03-02 07:58:54,22.3091396371605,39.0982730589886,4.593176,,,7.77068922504,0,0,1.30668967436,5.4791340336,30,5,7.744,11.05152922504,7.874016,0.3131716,1.88104008644,0,0,0,10.2, 0, -1.5,0,0,1024,1024,1024,1024,0,0,0,0,10,0,0,72,3.888,3.855,0,0,0,0,5.846,120.74,7.77068922504,4.593176,6,P-GPS,
33800,2026-03-02 07:58:54,22.3091396385596,39.0982730322402,4.593176,,,7.77068922504,0,0,1.3056594906,5.488189152,30,5,7.744,11.05152922504,7.874016,0.3131716,1.88104008644,0,0,0,10.3, -0.1, -1,0,0,1024,1024,1024,1024,0,0,0,0,10,0,0,72,3.888,3.855,0,0,0,0,5.846,120.74,7.77068922504,4.593176,6,P-GPS,
34000,2026-03-02 07:58:54,22.3091396396514,39.0982730142273,4.593176,,,7.77068922504,0,0,1.30494754832,5.494258706,30,5,7.744,11.05152922504,7.874016,0.3131716,1.88104008644,0,0,0,10.3, 0, -1.2,0,0,1024,1024,1024,1024,0,0,0,0,10,0,0,72,3.888,3.855,0,0,0,0,5.846,120.74,7.77068922504,4.593176,6,P-GPS,
34200,2026-03-02 07:58:55,22.3091396351484,39.0982729962094,4.593176,,,7.77068922504,0,0,1.30630253524,5.5005579188,30,5,7.744,11.05152922504,7.874016,0.3131716,1.88104008644,0,0,0,10.2, 0.3, -1.2,0,0,1024,1024,1024,1024,0,0,0,0,10,0,0,72,3.888,3.855,0,0,0,0,5.846,120.74,7.77068922504,4.593176,6,P-GPS,
34400,2026-03-02 07:58:55,22.3091396217025,39.0982729578265,4.593176,,,7.77068922504,0,0,1.31068573748,5.514435872,30,5,7.744,11.05152922504,7.874016,0.3131716,1.88104008644,0,0,0,10.2, 0, -0.3,0,0,1024,1024,1024,1024,0,0,0,0,10,0,0,72,3.888,3.855,0,0,0,0,5.846,120.74,7.77068922504,4.593176,6,P-GPS,
34600,2026-03-02 07:58:55,22.3091396002598,39.0982729403729,4.593176,,,7.77068922504,0,0,1.31831369048,5.5242127752,30,5,7.743,11.05152922504,7.874016,0.3131716,1.88104008644,0,0,0,10.2, 0, -1.1,0,0,1024,1024,1024,1024,0,0,0,0,10,0,0,72,3.887,3.855,0,0,0,0,5.81,120.92,7.77068922504,4.593176,6,P-GPS,
34800,2026-03-02 07:58:55,22.309139578942,39.0982729098088,4.593176,,,7.77068922504,0,0,1.32581697156,5.5371392848,30,5,7.743,11.05152922504,7.874016,0.3131716,1.88104008644,0,0,0,10.2, 0.1, -0.3,0,0,1024,1024,1024,1024,0,0,0,0,10,0,0,72,3.887,3.855,0,0,0,0,5.81,120.92,7.77068922504,4.593176,6,P-GPS,
35000,2026-03-02 07:58:55,22.3091395509402,39.098272869167,4.593176,,,7.77068922504,0,0,1.33580056768,5.5542324612,30,5,7.743,11.05152922504,7.874016,0.3131716,1.88104008644,0,0,0,10.2, -0.4, -0.7,0,0,1024,1024,1024,1024,0,0,0,0,10,0,0,72,3.887,3.855,0,0,0,0,5.81,120.92,7.77068922504,4.593176,6,P-GPS,
35200,2026-03-02 07:58:56,22.3091395448834,39.098272816461,4.593176,,,7.77068922504,0,0,1.33791999032,5.572178656,31,5,7.743,11.05152922504,7.874016,0.3131716,1.88104008644,0,0,0,10.2, 0.3, -0.3,0,0,1024,1024,1024,1024,0,0,0,0,10,0,0,72,3.887,3.855,0,0,0,0,5.81,120.92,7.77068922504,4.593176,6,P-GPS,
35400,2026-03-02 07:58:56,22.3091395072797,39.0982727602035,4.593176,,,7.77068922504,0,0,1.35180122436,5.5956038536,31,5,7.743,11.05152922504,7.874016,0.3131716,1.88104008644,0,0,0,10.3, 0, -0.1,0,0,1024,1024,1024,1024,0,0,0,0,10,0,0,72,3.887,3.855,0,0,0,0,5.81,120.92,7.77068922504,4.593176,6,P-GPS,
35600,2026-03-02 07:58:56,22.3091394500142,39.0982727048443,4.593176,,,7.77068922504,0,0,1.37310371848,5.6236222272,31,5,7.743,11.05152922504,7.874016,0.3131716,1.88104008644,0,0,0,10.3, -0.5, -0.7,0,0,1024,1024,1024,1024,0,0,0,0,10,0,0,72,3.886,3.852,0,0,0,0,5.81,120.92,7.77068922504,4.593176,6,P-GPS,
35800,2026-03-02 07:58:56,22.3091394024701,39.0982726487939,4.593176,,,7.77068922504,0,0,1.39111224924,5.649278396,31,5,7.743,11.05152922504,7.874016,0.3131716,1.88104008644,0,0,0,10.2, -0.5, -0.1,0,0,1024,1024,1024,1024,0,0,0,0,10,0,0,72,3.886,3.852,0,0,0,0,5.81,120.92,7.77068922504,4.593176,6,P-GPS,
36000,2026-03-02 07:58:56,22.3091393752431,39.0982726132797,4.593176,,,7.77068922504,0,0,1.40158797136,5.664862386,31,5,7.743,11.05152922504,7.874016,0.3131716,1.88104008644,0,0,0,10.2, -0.6, -0.2,0,0,1024,1024,1024,1024,0,0,0,0,10,0,0,72,3.886,3.852,0,0,0,0,5.81,120.92,7.77068922504,4.593176,6,P-GPS,
36200,2026-03-02 07:58:57,22.3091393709446,39.0982725899824,4.593176,,,7.77068922504,0,0,1.40357287956,5.6728676356,31,5,7.743,11.05152922504,7.874016,0.3131716,1.88104008644,0,0,0,10.3, -0.7, 0,0,0,1024,1024,1024,1024,0,0,0,0,10,0,0,72,3.886,3.852,0,0,0,0,5.81,120.92,7.77068922504,4.593176,6,P-GPS,
36400,2026-03-02 07:58:57,22.3091393859909,39.0982726003635,4.593176,,,7.77068922504,0,0,1.3979003072,5.6793965072,31,5,7.743,11.05152922504,7.874016,0.3131716,1.88104008644,0,0,0,10.2, -0.1, -0.2,0,0,1024,1024,1024,1024,0,0,0,0,10,0,0,72,3.886,3.852,0,0,0,0,5.81,120.92,7.77068922504,4.593176,6,P-GPS,
36600,2026-03-02 07:58:57,22.3091394168251,39.0982726610349,4.593176,,,7.77068922504,0,0.223694,1.3857119866,5.702756088,31,5,7.738,11.05152922504,7.874016,0.3131716,1.88104008644,0,0.223694,0,10.2, 0.2, -1.7,0,0,1024,1024,1024,1024,0,0,0,0,10,0,0,72,3.885,3.851,0,0,0,0,6.007,120.92,7.77068922504,4.593176,6,P-GPS,
36800,2026-03-02 07:58:57,22.3091394398275,39.0982727157472,4.593176,,,7.77068922504,0,0,1.37671920416,5.7230316792,31,5,7.738,11.05152922504,7.874016,0.3131716,1.88104008644,0,0,0,10.2, 0, -1.6,0,0,1024,1024,1024,1024,0,0,0,0,10,0,0,72,3.885,3.851,0,0,0,0,6.007,120.92,7.77068922504,4.593176,6,P-GPS,
37000,2026-03-02 07:58:57,22.3091394639725,39.0982727553559,4.593176,,,7.77068922504,0,0,1.36762471568,5.7390421784,31,5,7.738,11.05152922504,7.874016,0.3131716,1.88104008644,0,0,0,10.2, 0.2, -1.4,0,0,1024,1024,1024,1024,0,0,0,0,10,0,0,72,3.885,3.851,0,0,0,0,6.007,120.92,7.77068922504,4.593176,6,P-GPS,
37200,2026-03-02 07:58:58,22.3091394905253,39.0982727793181,4.593176,,,7.77068922504,0,0,1.35782812744,5.7516734124,30,5,7.738,11.05152922504,7.874016,0.3131716,1.88104008644,0,0,0,10.3, 0.7, -1.4,0,0,1024,1024,1024,1024,0,0,0,0,10,0,0,72,3.885,3.851,0,0,0,0,6.007,120.92,7.77068922504,4.593176,6,P-GPS,
37400,2026-03-02 07:58:58,22.3091394798883,39.0982727650987,4.593176,,,7.77068922504,0,0,1.36176841628,5.7578413916,30,5,7.738,11.05152922504,7.874016,0.3131716,1.88104008644,0,0,0,10.3, -0.2, -1.7,0,0,1024,1024,1024,1024,0,0,0,0,10,0,0,72,3.885,3.851,0,0,0,0,6.007,120.92,7.77068922504,4.593176,6,P-GPS,
37600,2026-03-02 07:58:58,22.3091394814041,39.0982727324154,4.593176,,,7.77068922504,0,0,1.3614173664,5.7688978224,30,5,7.736,11.05152922504,7.874016,0.3131716,1.88104008644,0,0,0,10.3, -0.1, -1.5,0,0,1024,1024,1024,1024,0,0,0,0,10,0,0,72,3.884,3.851,0,0,0,0,6.059,121.1,7.77068922504,4.593176,6,P-GPS,
37800,2026-03-02 07:58:58,22.3091395007575,39.0982727103618,4.593176,,,7.77068922504,0,0,1.3545440066,5.7791668516,30,5,7.736,11.05152922504,7.874016,0.3131716,1.88104008644,0,0,0,10.3, 0.2, -1.5,0,0,1024,1024,1024,1024,0,0,0,0,10,0,0,72,3.884,3.851,0,0,0,0,6.059,121.1,7.77068922504,4.593176,6,P-GPS,
38000,2026-03-02 07:58:58,22.3091395086402,39.0982726998206,4.593176,,,7.77068922504,0,0,1.35177497764,5.7837272192,30,5,7.736,11.05152922504,7.874016,0.3131716,1.88104008644,0,0,0,10.3, -0.2, -2.2,0,0,1024,1024,1024,1024,0,0,0,0,10,0,0,72,3.884,3.851,0,0,0,0,6.059,121.1,7.77068922504,4.593176,6,P-GPS,
